{
"type": "FeatureCollection",
"crs": { "type": "name", "properties": { "name": "urn:ogc:def:crs:EPSG::4269" } },
"features": [
{ "type": "Feature", "properties": { "County": "Santa Cruz", "State": "Arizona", "Trump": 6194.0, "Biden": 13138.0, "Jorgensen": 224.0, "Other": 0.0, "Total": 19556.0, "Winner": "Joseph R Biden Jr", "WnrPerc": 0.67181427694825113 }, "geometry": { "type": "Point", "coordinates": [ -110.812159050759917, 31.5678035 ] } },
{ "type": "Feature", "properties": { "County": "Holmes", "State": "Florida", "Trump": 8080.0, "Biden": 924.0, "Jorgensen": 48.0, "Other": 16.0, "Total": 9068.0, "Winner": "Donald J Trump", "WnrPerc": 0.89104543449492724 }, "geometry": { "type": "Point", "coordinates": [ -85.81687914332025, 30.845015 ] } },
{ "type": "Feature", "properties": { "County": "Lincoln", "State": "Minnesota", "Trump": 2121.0, "Biden": 937.0, "Jorgensen": 23.0, "Other": 34.0, "Total": 3115.0, "Winner": "Donald J Trump", "WnrPerc": 0.68089887640449442 }, "geometry": { "type": "Point", "coordinates": [ -96.265814184666709, 44.4156195 ] } },
{ "type": "Feature", "properties": { "County": "Flathead", "State": "Montana", "Trump": 38321.0, "Biden": 20274.0, "Jorgensen": 1341.0, "Other": 0.0, "Total": 59936.0, "Winner": "Donald J Trump", "WnrPerc": 0.63936532301121196 }, "geometry": { "type": "Point", "coordinates": [ -114.091801085394792, 48.2954185 ] } },
{ "type": "Feature", "properties": { "County": "Perkins", "State": "Nebraska", "Trump": 1321.0, "Biden": 199.0, "Jorgensen": 24.0, "Other": 0.0, "Total": 1544.0, "Winner": "Donald J Trump", "WnrPerc": 0.85556994818652854 }, "geometry": { "type": "Point", "coordinates": [ -101.650293504697089, 40.875984 ] } },
{ "type": "Feature", "properties": { "County": "Renville", "State": "North Dakota", "Trump": 1065.0, "Biden": 220.0, "Jorgensen": 32.0, "Other": 2.0, "Total": 1319.0, "Winner": "Donald J Trump", "WnrPerc": 0.80742987111448061 }, "geometry": { "type": "Point", "coordinates": [ -101.75909934949388, 48.7636955 ] } },
{ "type": "Feature", "properties": { "County": "Alfalfa", "State": "Oklahoma", "Trump": 1978.0, "Biden": 232.0, "Jorgensen": 31.0, "Other": 21.0, "Total": 2262.0, "Winner": "Donald J Trump", "WnrPerc": 0.87444739168877095 }, "geometry": { "type": "Point", "coordinates": [ -98.321876241996222, 36.7681275 ] } },
{ "type": "Feature", "properties": { "County": "Clayton", "State": "Georgia", "Trump": 15813.0, "Biden": 95476.0, "Jorgensen": 1055.0, "Other": 0.0, "Total": 112344.0, "Winner": "Joseph R Biden Jr", "WnrPerc": 0.84985401979633979 }, "geometry": { "type": "Point", "coordinates": [ -84.353242079439724, 33.502718 ] } },
{ "type": "Feature", "properties": { "County": "Pueblo", "State": "Colorado", "Trump": 42252.0, "Biden": 43772.0, "Jorgensen": 1200.0, "Other": 1077.0, "Total": 88301.0, "Winner": "Joseph R Biden Jr", "WnrPerc": 0.495713525328139 }, "geometry": { "type": "Point", "coordinates": [ -104.5533242873814, 38.1371325 ] } },
{ "type": "Feature", "properties": { "County": "Fayette", "State": "Illinois", "Trump": 8055.0, "Biden": 1826.0, "Jorgensen": 113.0, "Other": 62.0, "Total": 10056.0, "Winner": "Donald J Trump", "WnrPerc": 0.80101431980906923 }, "geometry": { "type": "Point", "coordinates": [ -89.031803338099564, 38.9582865 ] } },
{ "type": "Feature", "properties": { "County": "Tipton", "State": "Indiana", "Trump": 6110.0, "Biden": 1834.0, "Jorgensen": 171.0, "Other": 1.0, "Total": 8116.0, "Winner": "Donald J Trump", "WnrPerc": 0.75283390832922625 }, "geometry": { "type": "Point", "coordinates": [ -86.052109538997883, 40.332558 ] } },
{ "type": "Feature", "properties": { "County": "Lyon", "State": "Kansas", "Trump": 7550.0, "Biden": 6055.0, "Jorgensen": 383.0, "Other": 0.0, "Total": 13988.0, "Winner": "Donald J Trump", "WnrPerc": 0.5397483557334859 }, "geometry": { "type": "Point", "coordinates": [ -96.152187102087566, 38.4559045 ] } },
{ "type": "Feature", "properties": { "County": "DeKalb", "State": "Illinois", "Trump": 21905.0, "Biden": 24643.0, "Jorgensen": 783.0, "Other": 494.0, "Total": 47825.0, "Winner": "Joseph R Biden Jr", "WnrPerc": 0.5152744380554104 }, "geometry": { "type": "Point", "coordinates": [ -88.771186503053983, 41.8129225 ] } },
{ "type": "Feature", "properties": { "County": "Watonwan", "State": "Minnesota", "Trump": 3103.0, "Biden": 1987.0, "Jorgensen": 28.0, "Other": 83.0, "Total": 5201.0, "Winner": "Donald J Trump", "WnrPerc": 0.59661603537781194 }, "geometry": { "type": "Point", "coordinates": [ -94.614299580009458, 44.0214775 ] } },
{ "type": "Feature", "properties": { "County": "Douglas", "State": "Missouri", "Trump": 5898.0, "Biden": 1016.0, "Jorgensen": 68.0, "Other": 18.0, "Total": 7000.0, "Winner": "Donald J Trump", "WnrPerc": 0.84257142857142853 }, "geometry": { "type": "Point", "coordinates": [ -92.499303067121275, 36.932713 ] } },
{ "type": "Feature", "properties": { "County": "Newton", "State": "Mississippi", "Trump": 6997.0, "Biden": 3075.0, "Jorgensen": 47.0, "Other": 64.0, "Total": 10183.0, "Winner": "Donald J Trump", "WnrPerc": 0.68712560149268387 }, "geometry": { "type": "Point", "coordinates": [ -89.118718362134985, 32.384251 ] } },
{ "type": "Feature", "properties": { "County": "Shelby", "State": "Ohio", "Trump": 20422.0, "Biden": 4465.0, "Jorgensen": 290.0, "Other": 81.0, "Total": 25258.0, "Winner": "Donald J Trump", "WnrPerc": 0.80853590941483888 }, "geometry": { "type": "Point", "coordinates": [ -84.21921156584645, 40.3357195 ] } },
{ "type": "Feature", "properties": { "County": "Vance", "State": "North Carolina", "Trump": 8391.0, "Biden": 12431.0, "Jorgensen": 94.0, "Other": 83.0, "Total": 20999.0, "Winner": "Joseph R Biden Jr", "WnrPerc": 0.59198057050335728 }, "geometry": { "type": "Point", "coordinates": [ -78.401121128355356, 36.38047 ] } },
{ "type": "Feature", "properties": { "County": "Reagan", "State": "Texas", "Trump": 942.0, "Biden": 172.0, "Jorgensen": 7.0, "Other": 3.0, "Total": 1124.0, "Winner": "Donald J Trump", "WnrPerc": 0.83807829181494664 }, "geometry": { "type": "Point", "coordinates": [ -101.523704072305947, 31.304236 ] } },
{ "type": "Feature", "properties": { "County": "Paulding", "State": "Ohio", "Trump": 7086.0, "Biden": 2213.0, "Jorgensen": 124.0, "Other": 44.0, "Total": 9467.0, "Winner": "Donald J Trump", "WnrPerc": 0.74849477131086939 }, "geometry": { "type": "Point", "coordinates": [ -84.572585038210974, 41.130967 ] } },
{ "type": "Feature", "properties": { "County": "Effingham", "State": "Illinois", "Trump": 15006.0, "Biden": 3716.0, "Jorgensen": 232.0, "Other": 95.0, "Total": 19049.0, "Winner": "Donald J Trump", "WnrPerc": 0.78775788755315235 }, "geometry": { "type": "Point", "coordinates": [ -88.583674864405936, 39.0432515 ] } },
{ "type": "Feature", "properties": { "County": "Jefferson", "State": "Illinois", "Trump": 12476.0, "Biden": 4608.0, "Jorgensen": 214.0, "Other": 106.0, "Total": 17404.0, "Winner": "Donald J Trump", "WnrPerc": 0.71684670190760746 }, "geometry": { "type": "Point", "coordinates": [ -88.923815734170759, 38.3220485 ] } },
{ "type": "Feature", "properties": { "County": "Calhoun", "State": "Michigan", "Trump": 36221.0, "Biden": 28877.0, "Jorgensen": 890.0, "Other": 293.0, "Total": 66281.0, "Winner": "Donald J Trump", "WnrPerc": 0.54647636577601422 }, "geometry": { "type": "Point", "coordinates": [ -85.006959480668343, 42.2463835 ] } },
{ "type": "Feature", "properties": { "County": "Kendall", "State": "Texas", "Trump": 20083.0, "Biden": 6020.0, "Jorgensen": 289.0, "Other": 60.0, "Total": 26452.0, "Winner": "Donald J Trump", "WnrPerc": 0.75922425525480119 }, "geometry": { "type": "Point", "coordinates": [ -98.713238780419289, 29.8594775 ] } },
{ "type": "Feature", "properties": { "County": "Jackson", "State": "Colorado", "Trump": 681.0, "Biden": 175.0, "Jorgensen": 12.0, "Other": 8.0, "Total": 876.0, "Winner": "Donald J Trump", "WnrPerc": 0.7773972602739726 }, "geometry": { "type": "Point", "coordinates": [ -106.324726295866469, 40.668971 ] } },
{ "type": "Feature", "properties": { "County": "Walker", "State": "Georgia", "Trump": 23174.0, "Biden": 5769.0, "Jorgensen": 411.0, "Other": 0.0, "Total": 29354.0, "Winner": "Donald J Trump", "WnrPerc": 0.78946651223001973 }, "geometry": { "type": "Point", "coordinates": [ -85.326236748524678, 34.803437 ] } },
{ "type": "Feature", "properties": { "County": "Howard", "State": "Iowa", "Trump": 3133.0, "Biden": 1772.0, "Jorgensen": 23.0, "Other": 30.0, "Total": 4958.0, "Winner": "Donald J Trump", "WnrPerc": 0.63190802743041552 }, "geometry": { "type": "Point", "coordinates": [ -92.317020269864486, 43.377959508364498 ] } },
{ "type": "Feature", "properties": { "County": "Benzie", "State": "Michigan", "Trump": 6601.0, "Biden": 5480.0, "Jorgensen": 128.0, "Other": 53.0, "Total": 12262.0, "Winner": "Donald J Trump", "WnrPerc": 0.53832979938019898 }, "geometry": { "type": "Point", "coordinates": [ -86.029752491505931, 44.6285935 ] } },
{ "type": "Feature", "properties": { "County": "Panola", "State": "Mississippi", "Trump": 8060.0, "Biden": 7403.0, "Jorgensen": 48.0, "Other": 116.0, "Total": 15627.0, "Winner": "Donald J Trump", "WnrPerc": 0.51577398093044091 }, "geometry": { "type": "Point", "coordinates": [ -89.959477031197864, 34.3988815 ] } },
{ "type": "Feature", "properties": { "County": "Los Alamos", "State": "New Mexico", "Trump": 4278.0, "Biden": 7554.0, "Jorgensen": 360.0, "Other": 101.0, "Total": 12293.0, "Winner": "Joseph R Biden Jr", "WnrPerc": 0.6144960546652567 }, "geometry": { "type": "Point", "coordinates": [ -106.323274854082769, 35.893197 ] } },
{ "type": "Feature", "properties": { "County": "La Crosse", "State": "Wisconsin", "Trump": 28684.0, "Biden": 37846.0, "Jorgensen": 877.0, "Other": 477.0, "Total": 67884.0, "Winner": "Joseph R Biden Jr", "WnrPerc": 0.55750986977785633 }, "geometry": { "type": "Point", "coordinates": [ -91.127260316506451, 43.9063855 ] } },
{ "type": "Feature", "properties": { "County": "Lafayette", "State": "Florida", "Trump": 3128.0, "Biden": 510.0, "Jorgensen": 14.0, "Other": 6.0, "Total": 3658.0, "Winner": "Donald J Trump", "WnrPerc": 0.85511208310552211 }, "geometry": { "type": "Point", "coordinates": [ -83.198539076101881, 30.043346 ] } },
{ "type": "Feature", "properties": { "County": "Stark", "State": "Illinois", "Trump": 2004.0, "Biden": 815.0, "Jorgensen": 42.0, "Other": 22.0, "Total": 2883.0, "Winner": "Donald J Trump", "WnrPerc": 0.69510926118626426 }, "geometry": { "type": "Point", "coordinates": [ -89.811833632467142, 41.057908 ] } },
{ "type": "Feature", "properties": { "County": "Fayette", "State": "Indiana", "Trump": 7755.0, "Biden": 2237.0, "Jorgensen": 144.0, "Other": 0.0, "Total": 10136.0, "Winner": "Donald J Trump", "WnrPerc": 0.76509471191791634 }, "geometry": { "type": "Point", "coordinates": [ -85.167254996802399, 39.591862 ] } },
{ "type": "Feature", "properties": { "County": "Franklin", "State": "Kentucky", "Trump": 12900.0, "Biden": 12650.0, "Jorgensen": 365.0, "Other": 144.0, "Total": 26059.0, "Winner": "Donald J Trump", "WnrPerc": 0.4950305076940788 }, "geometry": { "type": "Point", "coordinates": [ -84.866802228762509, 38.2530855 ] } },
{ "type": "Feature", "properties": { "County": "Audrain", "State": "Missouri", "Trump": 7732.0, "Biden": 2704.0, "Jorgensen": 175.0, "Other": 45.0, "Total": 10656.0, "Winner": "Donald J Trump", "WnrPerc": 0.72560060060060061 }, "geometry": { "type": "Point", "coordinates": [ -91.761741425299903, 39.193831 ] } },
{ "type": "Feature", "properties": { "County": "Polk", "State": "Nebraska", "Trump": 2291.0, "Biden": 530.0, "Jorgensen": 58.0, "Other": 0.0, "Total": 2879.0, "Winner": "Donald J Trump", "WnrPerc": 0.79576241750607846 }, "geometry": { "type": "Point", "coordinates": [ -97.575707262586945, 41.214102 ] } },
{ "type": "Feature", "properties": { "County": "Clay", "State": "Nebraska", "Trump": 2848.0, "Biden": 632.0, "Jorgensen": 78.0, "Other": 0.0, "Total": 3558.0, "Winner": "Donald J Trump", "WnrPerc": 0.80044969083754913 }, "geometry": { "type": "Point", "coordinates": [ -98.051271634112439, 40.524416 ] } },
{ "type": "Feature", "properties": { "County": "Auglaize", "State": "Ohio", "Trump": 20798.0, "Biden": 4651.0, "Jorgensen": 260.0, "Other": 68.0, "Total": 25777.0, "Winner": "Donald J Trump", "WnrPerc": 0.80684330992745468 }, "geometry": { "type": "Point", "coordinates": [ -84.226741055432399, 40.5091445 ] } },
{ "type": "Feature", "properties": { "County": "Lebanon", "State": "Pennsylvania", "Trump": 46731.0, "Biden": 23932.0, "Jorgensen": 989.0, "Other": 0.0, "Total": 71652.0, "Winner": "Donald J Trump", "WnrPerc": 0.65219393736392561 }, "geometry": { "type": "Point", "coordinates": [ -76.474677391143757, 40.40709 ] } },
{ "type": "Feature", "properties": { "County": "Hyde", "State": "South Dakota", "Trump": 564.0, "Biden": 136.0, "Jorgensen": 10.0, "Other": 0.0, "Total": 710.0, "Winner": "Donald J Trump", "WnrPerc": 0.79436619718309864 }, "geometry": { "type": "Point", "coordinates": [ -99.481968230790443, 44.3824485 ] } },
{ "type": "Feature", "properties": { "County": "Clay", "State": "West Virginia", "Trump": 2679.0, "Biden": 641.0, "Jorgensen": 37.0, "Other": 8.0, "Total": 3365.0, "Winner": "Donald J Trump", "WnrPerc": 0.79613670133729564 }, "geometry": { "type": "Point", "coordinates": [ -81.073292193117624, 38.4417005 ] } },
{ "type": "Feature", "properties": { "County": "Upshur", "State": "West Virginia", "Trump": 7771.0, "Biden": 2256.0, "Jorgensen": 167.0, "Other": 27.0, "Total": 10221.0, "Winner": "Donald J Trump", "WnrPerc": 0.76029742686625579 }, "geometry": { "type": "Point", "coordinates": [ -80.234753449505291, 38.901812 ] } },
{ "type": "Feature", "properties": { "County": "Price", "State": "Wisconsin", "Trump": 5394.0, "Biden": 3032.0, "Jorgensen": 98.0, "Other": 22.0, "Total": 8546.0, "Winner": "Donald J Trump", "WnrPerc": 0.63117247835244561 }, "geometry": { "type": "Point", "coordinates": [ -90.361101236039104, 45.684313 ] } },
{ "type": "Feature", "properties": { "County": "Faulk", "State": "South Dakota", "Trump": 964.0, "Biden": 198.0, "Jorgensen": 20.0, "Other": 0.0, "Total": 1182.0, "Winner": "Donald J Trump", "WnrPerc": 0.81556683587140444 }, "geometry": { "type": "Point", "coordinates": [ -99.145071067665924, 45.0704975 ] } },
{ "type": "Feature", "properties": { "County": "Jones", "State": "Texas", "Trump": 5660.0, "Biden": 999.0, "Jorgensen": 63.0, "Other": 19.0, "Total": 6741.0, "Winner": "Donald J Trump", "WnrPerc": 0.83963803589971819 }, "geometry": { "type": "Point", "coordinates": [ -99.878702384502972, 32.7398775 ] } },
{ "type": "Feature", "properties": { "County": "Haralson", "State": "Georgia", "Trump": 12331.0, "Biden": 1792.0, "Jorgensen": 125.0, "Other": 0.0, "Total": 14248.0, "Winner": "Donald J Trump", "WnrPerc": 0.86545480067377878 }, "geometry": { "type": "Point", "coordinates": [ -85.206052976000194, 33.776955 ] } },
{ "type": "Feature", "properties": { "County": "Greene", "State": "Iowa", "Trump": 3229.0, "Biden": 1769.0, "Jorgensen": 36.0, "Other": 23.0, "Total": 5057.0, "Winner": "Donald J Trump", "WnrPerc": 0.63852086217124782 }, "geometry": { "type": "Point", "coordinates": [ -94.396592704753502, 42.0362025 ] } },
{ "type": "Feature", "properties": { "County": "Costilla", "State": "Colorado", "Trump": 741.0, "Biden": 1311.0, "Jorgensen": 15.0, "Other": 27.0, "Total": 2094.0, "Winner": "Joseph R Biden Jr", "WnrPerc": 0.62607449856733521 }, "geometry": { "type": "Point", "coordinates": [ -105.448366632374047, 37.311019 ] } },
{ "type": "Feature", "properties": { "County": "Crawford", "State": "Illinois", "Trump": 7043.0, "Biden": 2202.0, "Jorgensen": 119.0, "Other": 61.0, "Total": 9425.0, "Winner": "Donald J Trump", "WnrPerc": 0.74726790450928382 }, "geometry": { "type": "Point", "coordinates": [ -87.760932714883751, 39.01051 ] } },
{ "type": "Feature", "properties": { "County": "Seward", "State": "Kansas", "Trump": 3372.0, "Biden": 1833.0, "Jorgensen": 89.0, "Other": 0.0, "Total": 5294.0, "Winner": "Donald J Trump", "WnrPerc": 0.63694748772194942 }, "geometry": { "type": "Point", "coordinates": [ -100.850697018238321, 37.1284675 ] } },
{ "type": "Feature", "properties": { "County": "Liberty", "State": "Montana", "Trump": 821.0, "Biden": 249.0, "Jorgensen": 13.0, "Other": 0.0, "Total": 1083.0, "Winner": "Donald J Trump", "WnrPerc": 0.75807940904893811 }, "geometry": { "type": "Point", "coordinates": [ -111.014205555961155, 48.393023 ] } },
{ "type": "Feature", "properties": { "County": "Sanders", "State": "Montana", "Trump": 5660.0, "Biden": 1820.0, "Jorgensen": 142.0, "Other": 0.0, "Total": 7622.0, "Winner": "Donald J Trump", "WnrPerc": 0.74258724744161642 }, "geometry": { "type": "Point", "coordinates": [ -115.154555767657996, 47.6865485 ] } },
{ "type": "Feature", "properties": { "County": "New Hanover", "State": "North Carolina", "Trump": 63331.0, "Biden": 66138.0, "Jorgensen": 1521.0, "Other": 840.0, "Total": 131830.0, "Winner": "Joseph R Biden Jr", "WnrPerc": 0.50169157247970875 }, "geometry": { "type": "Point", "coordinates": [ -77.893037931101532, 34.1580825 ] } },
{ "type": "Feature", "properties": { "County": "Guadalupe", "State": "New Mexico", "Trump": 917.0, "Biden": 1234.0, "Jorgensen": 21.0, "Other": 17.0, "Total": 2189.0, "Winner": "Joseph R Biden Jr", "WnrPerc": 0.56372772955687533 }, "geometry": { "type": "Point", "coordinates": [ -104.709856314447677, 34.8669645 ] } },
{ "type": "Feature", "properties": { "County": "Colfax", "State": "Nebraska", "Trump": 2636.0, "Biden": 1025.0, "Jorgensen": 56.0, "Other": 0.0, "Total": 3717.0, "Winner": "Donald J Trump", "WnrPerc": 0.70917406510626846 }, "geometry": { "type": "Point", "coordinates": [ -97.079245812081894, 41.534554 ] } },
{ "type": "Feature", "properties": { "County": "Glenn", "State": "California", "Trump": 7063.0, "Biden": 3995.0, "Jorgensen": 128.0, "Other": 111.0, "Total": 11297.0, "Winner": "Donald J Trump", "WnrPerc": 0.62521023280516952 }, "geometry": { "type": "Point", "coordinates": [ -122.440207225100323, 39.5927295 ] } },
{ "type": "Feature", "properties": { "County": "Hamilton", "State": "Illinois", "Trump": 3432.0, "Biden": 824.0, "Jorgensen": 41.0, "Other": 18.0, "Total": 4315.0, "Winner": "Donald J Trump", "WnrPerc": 0.79536500579374281 }, "geometry": { "type": "Point", "coordinates": [ -88.53925915457819, 38.0381075 ] } },
{ "type": "Feature", "properties": { "County": "Cerro Gordo", "State": "Iowa", "Trump": 12499.0, "Biden": 10941.0, "Jorgensen": 196.0, "Other": 165.0, "Total": 23801.0, "Winner": "Donald J Trump", "WnrPerc": 0.52514600226881225 }, "geometry": { "type": "Point", "coordinates": [ -93.261401352965137, 43.060662 ] } },
{ "type": "Feature", "properties": { "County": "O'Brien", "State": "Iowa", "Trump": 5871.0, "Biden": 1569.0, "Jorgensen": 77.0, "Other": 34.0, "Total": 7551.0, "Winner": "Donald J Trump", "WnrPerc": 0.77751291219705998 }, "geometry": { "type": "Point", "coordinates": [ -95.624520306564335, 43.125941 ] } },
{ "type": "Feature", "properties": { "County": "Waseca", "State": "Minnesota", "Trump": 6624.0, "Biden": 3496.0, "Jorgensen": 123.0, "Other": 146.0, "Total": 10389.0, "Winner": "Donald J Trump", "WnrPerc": 0.63759745885070751 }, "geometry": { "type": "Point", "coordinates": [ -93.587168518268214, 44.108848 ] } },
{ "type": "Feature", "properties": { "County": "Greene", "State": "Missouri", "Trump": 83630.0, "Biden": 55068.0, "Jorgensen": 2454.0, "Other": 648.0, "Total": 141800.0, "Winner": "Donald J Trump", "WnrPerc": 0.58977433004231317 }, "geometry": { "type": "Point", "coordinates": [ -93.333769196740548, 37.2524745 ] } },
{ "type": "Feature", "properties": { "County": "Howard", "State": "Nebraska", "Trump": 2786.0, "Biden": 648.0, "Jorgensen": 67.0, "Other": 0.0, "Total": 3501.0, "Winner": "Donald J Trump", "WnrPerc": 0.79577263638960294 }, "geometry": { "type": "Point", "coordinates": [ -98.516652625622555, 41.220284 ] } },
{ "type": "Feature", "properties": { "County": "Craven", "State": "North Carolina", "Trump": 31032.0, "Biden": 21148.0, "Jorgensen": 626.0, "Other": 259.0, "Total": 53065.0, "Winner": "Donald J Trump", "WnrPerc": 0.58479223593705831 }, "geometry": { "type": "Point", "coordinates": [ -77.084950566255699, 35.104334 ] } },
{ "type": "Feature", "properties": { "County": "Wyandot", "State": "Ohio", "Trump": 8462.0, "Biden": 2733.0, "Jorgensen": 155.0, "Other": 40.0, "Total": 11390.0, "Winner": "Donald J Trump", "WnrPerc": 0.74293239683933276 }, "geometry": { "type": "Point", "coordinates": [ -83.313709180633879, 40.861549 ] } },
{ "type": "Feature", "properties": { "County": "Granville", "State": "North Carolina", "Trump": 16647.0, "Biden": 14565.0, "Jorgensen": 244.0, "Other": 142.0, "Total": 31598.0, "Winner": "Donald J Trump", "WnrPerc": 0.52683714159123995 }, "geometry": { "type": "Point", "coordinates": [ -78.654672354779876, 36.360251 ] } },
{ "type": "Feature", "properties": { "County": "Lexington", "State": "Virginia", "Trump": 906.0, "Biden": 1791.0, "Jorgensen": 48.0, "Other": 19.0, "Total": 2764.0, "Winner": "Joseph R Biden Jr", "WnrPerc": 0.64797395079594788 }, "geometry": { "type": "Point", "coordinates": [ -79.450691469468325, 37.7723505 ] } },
{ "type": "Feature", "properties": { "County": "Clark", "State": "Wisconsin", "Trump": 10002.0, "Biden": 4524.0, "Jorgensen": 168.0, "Other": 204.0, "Total": 14898.0, "Winner": "Donald J Trump", "WnrPerc": 0.67136528393072892 }, "geometry": { "type": "Point", "coordinates": [ -90.619318509903721, 44.7712315 ] } },
{ "type": "Feature", "properties": { "County": "Kewaunee", "State": "Wisconsin", "Trump": 7927.0, "Biden": 3976.0, "Jorgensen": 127.0, "Other": 65.0, "Total": 12095.0, "Winner": "Donald J Trump", "WnrPerc": 0.65539479123604794 }, "geometry": { "type": "Point", "coordinates": [ -87.625656312204427, 44.4908245 ] } },
{ "type": "Feature", "properties": { "County": "Hunt", "State": "Texas", "Trump": 29163.0, "Biden": 8906.0, "Jorgensen": 434.0, "Other": 94.0, "Total": 38597.0, "Winner": "Donald J Trump", "WnrPerc": 0.75557685830504961 }, "geometry": { "type": "Point", "coordinates": [ -96.079568452816702, 33.1097235 ] } },
{ "type": "Feature", "properties": { "County": "Roberts", "State": "Texas", "Trump": 529.0, "Biden": 17.0, "Jorgensen": 4.0, "Other": 0.0, "Total": 550.0, "Winner": "Donald J Trump", "WnrPerc": 0.96181818181818179 }, "geometry": { "type": "Point", "coordinates": [ -100.813045671335459, 35.8402715 ] } },
{ "type": "Feature", "properties": { "County": "Jay", "State": "Indiana", "Trump": 6361.0, "Biden": 1926.0, "Jorgensen": 169.0, "Other": 5.0, "Total": 8461.0, "Winner": "Donald J Trump", "WnrPerc": 0.75180238742465433 }, "geometry": { "type": "Point", "coordinates": [ -85.005440004505147, 40.4370595 ] } },
{ "type": "Feature", "properties": { "County": "Uvalde", "State": "Texas", "Trump": 6174.0, "Biden": 4073.0, "Jorgensen": 66.0, "Other": 31.0, "Total": 10344.0, "Winner": "Donald J Trump", "WnrPerc": 0.59686774941995357 }, "geometry": { "type": "Point", "coordinates": [ -99.762305955475327, 29.357299 ] } },
{ "type": "Feature", "properties": { "County": "Massac", "State": "Illinois", "Trump": 4997.0, "Biden": 1725.0, "Jorgensen": 65.0, "Other": 26.0, "Total": 6813.0, "Winner": "Donald J Trump", "WnrPerc": 0.73345075590782327 }, "geometry": { "type": "Point", "coordinates": [ -88.699266818622277, 37.2030985 ] } },
{ "type": "Feature", "properties": { "County": "Muskegon", "State": "Michigan", "Trump": 45133.0, "Biden": 45643.0, "Jorgensen": 1219.0, "Other": 449.0, "Total": 92444.0, "Winner": "Joseph R Biden Jr", "WnrPerc": 0.4937367487343689 }, "geometry": { "type": "Point", "coordinates": [ -86.213643297569064, 43.304872 ] } },
{ "type": "Feature", "properties": { "County": "Hillsdale", "State": "Michigan", "Trump": 17037.0, "Biden": 5883.0, "Jorgensen": 261.0, "Other": 121.0, "Total": 23302.0, "Winner": "Donald J Trump", "WnrPerc": 0.73113895802935369 }, "geometry": { "type": "Point", "coordinates": [ -84.593930653650276, 41.915291 ] } },
{ "type": "Feature", "properties": { "County": "Scotts Bluff", "State": "Nebraska", "Trump": 10952.0, "Biden": 4196.0, "Jorgensen": 321.0, "Other": 0.0, "Total": 15469.0, "Winner": "Donald J Trump", "WnrPerc": 0.70799663843816663 }, "geometry": { "type": "Point", "coordinates": [ -103.707862277200078, 41.814506 ] } },
{ "type": "Feature", "properties": { "County": "Sharkey", "State": "Mississippi", "Trump": 688.0, "Biden": 1465.0, "Jorgensen": 9.0, "Other": 21.0, "Total": 2183.0, "Winner": "Joseph R Biden Jr", "WnrPerc": 0.67109482363719652 }, "geometry": { "type": "Point", "coordinates": [ -90.827260207863091, 32.873953 ] } },
{ "type": "Feature", "properties": { "County": "Lancaster", "State": "Nebraska", "Trump": 70092.0, "Biden": 82293.0, "Jorgensen": 3706.0, "Other": 0.0, "Total": 156091.0, "Winner": "Joseph R Biden Jr", "WnrPerc": 0.52721169061637119 }, "geometry": { "type": "Point", "coordinates": [ -96.687257651908482, 40.7989415 ] } },
{ "type": "Feature", "properties": { "County": "Manitowoc", "State": "Wisconsin", "Trump": 27218.0, "Biden": 16818.0, "Jorgensen": 553.0, "Other": 240.0, "Total": 44829.0, "Winner": "Donald J Trump", "WnrPerc": 0.60715162060273486 }, "geometry": { "type": "Point", "coordinates": [ -87.838566893716006, 44.1132945 ] } },
{ "type": "Feature", "properties": { "County": "Decatur", "State": "Indiana", "Trump": 9575.0, "Biden": 2439.0, "Jorgensen": 273.0, "Other": 0.0, "Total": 12287.0, "Winner": "Donald J Trump", "WnrPerc": 0.77927891267192972 }, "geometry": { "type": "Point", "coordinates": [ -85.491111702964076, 39.30917 ] } },
{ "type": "Feature", "properties": { "County": "Haskell", "State": "Kansas", "Trump": 1122.0, "Biden": 268.0, "Jorgensen": 20.0, "Other": 0.0, "Total": 1410.0, "Winner": "Donald J Trump", "WnrPerc": 0.79574468085106387 }, "geometry": { "type": "Point", "coordinates": [ -100.87104701069093, 37.6129005 ] } },
{ "type": "Feature", "properties": { "County": "Pulaski", "State": "Missouri", "Trump": 10329.0, "Biden": 3740.0, "Jorgensen": 286.0, "Other": 59.0, "Total": 14414.0, "Winner": "Donald J Trump", "WnrPerc": 0.71659497710559183 }, "geometry": { "type": "Point", "coordinates": [ -92.217292225537562, 37.820367 ] } },
{ "type": "Feature", "properties": { "County": "Clinton", "State": "Michigan", "Trump": 25098.0, "Biden": 21968.0, "Jorgensen": 659.0, "Other": 202.0, "Total": 47927.0, "Winner": "Donald J Trump", "WnrPerc": 0.52367141694660635 }, "geometry": { "type": "Point", "coordinates": [ -84.601347632527876, 42.94686 ] } },
{ "type": "Feature", "properties": { "County": "Griggs", "State": "North Dakota", "Trump": 907.0, "Biden": 308.0, "Jorgensen": 34.0, "Other": 1.0, "Total": 1250.0, "Winner": "Donald J Trump", "WnrPerc": 0.7256 }, "geometry": { "type": "Point", "coordinates": [ -98.242635185258962, 47.456883 ] } },
{ "type": "Feature", "properties": { "County": "Putnam", "State": "Ohio", "Trump": 16412.0, "Biden": 3195.0, "Jorgensen": 247.0, "Other": 67.0, "Total": 19921.0, "Winner": "Donald J Trump", "WnrPerc": 0.82385422418553289 }, "geometry": { "type": "Point", "coordinates": [ -84.111321110686333, 41.078108 ] } },
{ "type": "Feature", "properties": { "County": "Colorado", "State": "Texas", "Trump": 7472.0, "Biden": 2420.0, "Jorgensen": 50.0, "Other": 33.0, "Total": 9975.0, "Winner": "Donald J Trump", "WnrPerc": 0.74907268170426067 }, "geometry": { "type": "Point", "coordinates": [ -96.522283588660997, 29.6059315 ] } },
{ "type": "Feature", "properties": { "County": "Briscoe", "State": "Texas", "Trump": 639.0, "Biden": 78.0, "Jorgensen": 7.0, "Other": 1.0, "Total": 725.0, "Winner": "Donald J Trump", "WnrPerc": 0.88137931034482764 }, "geometry": { "type": "Point", "coordinates": [ -101.208553806009917, 34.5301105 ] } },
{ "type": "Feature", "properties": { "County": "Outagamie", "State": "Wisconsin", "Trump": 58385.0, "Biden": 47667.0, "Jorgensen": 1569.0, "Other": 401.0, "Total": 108022.0, "Winner": "Donald J Trump", "WnrPerc": 0.54049175168021324 }, "geometry": { "type": "Point", "coordinates": [ -88.463829278643601, 44.5004505 ] } },
{ "type": "Feature", "properties": { "County": "Dallam", "State": "Texas", "Trump": 1389.0, "Biden": 197.0, "Jorgensen": 18.0, "Other": 5.0, "Total": 1609.0, "Winner": "Donald J Trump", "WnrPerc": 0.86326911124922312 }, "geometry": { "type": "Point", "coordinates": [ -102.602050690833892, 36.1863915 ] } },
{ "type": "Feature", "properties": { "County": "Charlottesville", "State": "Virginia", "Trump": 3094.0, "Biden": 20696.0, "Jorgensen": 311.0, "Other": 112.0, "Total": 24213.0, "Winner": "Joseph R Biden Jr", "WnrPerc": 0.85474744971709415 }, "geometry": { "type": "Point", "coordinates": [ -78.478018634353646, 38.0397685 ] } },
{ "type": "Feature", "properties": { "County": "Clay", "State": "Alabama", "Trump": 5601.0, "Biden": 1267.0, "Jorgensen": 0.0, "Other": 62.0, "Total": 6930.0, "Winner": "Donald J Trump", "WnrPerc": 0.80822510822510818 }, "geometry": { "type": "Point", "coordinates": [ -85.815445399742856, 33.295197 ] } },
{ "type": "Feature", "properties": { "County": "Anderson", "State": "Kansas", "Trump": 2929.0, "Biden": 782.0, "Jorgensen": 81.0, "Other": 0.0, "Total": 3792.0, "Winner": "Donald J Trump", "WnrPerc": 0.77241561181434604 }, "geometry": { "type": "Point", "coordinates": [ -95.296639692977266, 38.21345 ] } },
{ "type": "Feature", "properties": { "County": "Conejos", "State": "Colorado", "Trump": 2286.0, "Biden": 1959.0, "Jorgensen": 34.0, "Other": 54.0, "Total": 4333.0, "Winner": "Donald J Trump", "WnrPerc": 0.52757904454188786 }, "geometry": { "type": "Point", "coordinates": [ -106.183065468751835, 37.2065525 ] } },
{ "type": "Feature", "properties": { "County": "Fannin", "State": "Georgia", "Trump": 12169.0, "Biden": 2571.0, "Jorgensen": 110.0, "Other": 0.0, "Total": 14850.0, "Winner": "Donald J Trump", "WnrPerc": 0.81946127946127945 }, "geometry": { "type": "Point", "coordinates": [ -84.18801292279727, 34.7619385 ] } },
{ "type": "Feature", "properties": { "County": "Aroostook", "State": "Maine", "Trump": 21080.0, "Biden": 13956.0, "Jorgensen": 421.0, "Other": 753.0, "Total": 36210.0, "Winner": "Donald J Trump", "WnrPerc": 0.5821596244131455 }, "geometry": { "type": "Point", "coordinates": [ -68.303632601003443, 46.519554336221802 ] } },
{ "type": "Feature", "properties": { "County": "Cheboygan", "State": "Michigan", "Trump": 10186.0, "Biden": 5437.0, "Jorgensen": 196.0, "Other": 49.0, "Total": 15868.0, "Winner": "Donald J Trump", "WnrPerc": 0.64192084698764806 }, "geometry": { "type": "Point", "coordinates": [ -84.490797103601807, 45.5076705 ] } },
{ "type": "Feature", "properties": { "County": "Bowman", "State": "North Dakota", "Trump": 1395.0, "Biden": 228.0, "Jorgensen": 30.0, "Other": 4.0, "Total": 1657.0, "Winner": "Donald J Trump", "WnrPerc": 0.84188292094146044 }, "geometry": { "type": "Point", "coordinates": [ -103.520768726763862, 46.0620725 ] } },
{ "type": "Feature", "properties": { "County": "Allen", "State": "Louisiana", "Trump": 7574.0, "Biden": 2108.0, "Jorgensen": 73.0, "Other": 55.0, "Total": 9810.0, "Winner": "Donald J Trump", "WnrPerc": 0.7720693170234455 }, "geometry": { "type": "Point", "coordinates": [ -92.787794209151599, 30.7152985 ] } },
{ "type": "Feature", "properties": { "County": "Hooker", "State": "Nebraska", "Trump": 376.0, "Biden": 59.0, "Jorgensen": 7.0, "Other": 0.0, "Total": 442.0, "Winner": "Donald J Trump", "WnrPerc": 0.85067873303167418 }, "geometry": { "type": "Point", "coordinates": [ -101.135271853716148, 41.915683 ] } },
{ "type": "Feature", "properties": { "County": "Stanton", "State": "Nebraska", "Trump": 2561.0, "Biden": 532.0, "Jorgensen": 68.0, "Other": 0.0, "Total": 3161.0, "Winner": "Donald J Trump", "WnrPerc": 0.81018664979436883 }, "geometry": { "type": "Point", "coordinates": [ -97.193928545439832, 41.8735865 ] } },
{ "type": "Feature", "properties": { "County": "Pickens", "State": "Georgia", "Trump": 14075.0, "Biden": 2808.0, "Jorgensen": 233.0, "Other": 0.0, "Total": 17116.0, "Winner": "Donald J Trump", "WnrPerc": 0.8223299836410376 }, "geometry": { "type": "Point", "coordinates": [ -84.493261675223607, 34.5081335 ] } },
{ "type": "Feature", "properties": { "County": "Crisp", "State": "Georgia", "Trump": 4987.0, "Biden": 2986.0, "Jorgensen": 66.0, "Other": 0.0, "Total": 8039.0, "Winner": "Donald J Trump", "WnrPerc": 0.6203507898992412 }, "geometry": { "type": "Point", "coordinates": [ -83.766066763245689, 31.9163725 ] } },
{ "type": "Feature", "properties": { "County": "Knox", "State": "Illinois", "Trump": 12009.0, "Biden": 10703.0, "Jorgensen": 258.0, "Other": 173.0, "Total": 23143.0, "Winner": "Donald J Trump", "WnrPerc": 0.51890420429503525 }, "geometry": { "type": "Point", "coordinates": [ -90.214202318074911, 40.8312685 ] } },
{ "type": "Feature", "properties": { "County": "Greene", "State": "Indiana", "Trump": 11103.0, "Biden": 3389.0, "Jorgensen": 290.0, "Other": 2.0, "Total": 14784.0, "Winner": "Donald J Trump", "WnrPerc": 0.75101461038961037 }, "geometry": { "type": "Point", "coordinates": [ -86.961643403576304, 39.036125 ] } },
{ "type": "Feature", "properties": { "County": "Kandiyohi", "State": "Minnesota", "Trump": 14437.0, "Biden": 8440.0, "Jorgensen": 211.0, "Other": 279.0, "Total": 23367.0, "Winner": "Donald J Trump", "WnrPerc": 0.61783712072580987 }, "geometry": { "type": "Point", "coordinates": [ -95.004085347034646, 45.1089075 ] } },
{ "type": "Feature", "properties": { "County": "Shelby", "State": "Missouri", "Trump": 2700.0, "Biden": 592.0, "Jorgensen": 46.0, "Other": 12.0, "Total": 3350.0, "Winner": "Donald J Trump", "WnrPerc": 0.80597014925373134 }, "geometry": { "type": "Point", "coordinates": [ -92.068109974787376, 39.8055835 ] } },
{ "type": "Feature", "properties": { "County": "Ravalli", "State": "Montana", "Trump": 19114.0, "Biden": 8763.0, "Jorgensen": 630.0, "Other": 0.0, "Total": 28507.0, "Winner": "Donald J Trump", "WnrPerc": 0.67050198196934085 }, "geometry": { "type": "Point", "coordinates": [ -114.13635094420583, 46.0582155 ] } },
{ "type": "Feature", "properties": { "County": "Ionia", "State": "Michigan", "Trump": 20657.0, "Biden": 10901.0, "Jorgensen": 490.0, "Other": 161.0, "Total": 32209.0, "Winner": "Donald J Trump", "WnrPerc": 0.64134248191499266 }, "geometry": { "type": "Point", "coordinates": [ -85.074563130469727, 42.986859 ] } },
{ "type": "Feature", "properties": { "County": "Stephens", "State": "Oklahoma", "Trump": 15560.0, "Biden": 3154.0, "Jorgensen": 224.0, "Other": 119.0, "Total": 19057.0, "Winner": "Donald J Trump", "WnrPerc": 0.81649787479666269 }, "geometry": { "type": "Point", "coordinates": [ -97.850784183592864, 34.462039 ] } },
{ "type": "Feature", "properties": { "County": "Frio", "State": "Texas", "Trump": 2823.0, "Biden": 2422.0, "Jorgensen": 23.0, "Other": 11.0, "Total": 5279.0, "Winner": "Donald J Trump", "WnrPerc": 0.53476037128243981 }, "geometry": { "type": "Point", "coordinates": [ -99.107176722932365, 28.8689605 ] } },
{ "type": "Feature", "properties": { "County": "Motley", "State": "Texas", "Trump": 604.0, "Biden": 46.0, "Jorgensen": 2.0, "Other": 0.0, "Total": 652.0, "Winner": "Donald J Trump", "WnrPerc": 0.92638036809815949 }, "geometry": { "type": "Point", "coordinates": [ -100.779786375112067, 33.983223 ] } },
{ "type": "Feature", "properties": { "County": "Carroll", "State": "Tennessee", "Trump": 9205.0, "Biden": 2559.0, "Jorgensen": 0.0, "Other": 141.0, "Total": 11905.0, "Winner": "Donald J Trump", "WnrPerc": 0.77320453590928184 }, "geometry": { "type": "Point", "coordinates": [ -88.457919380231615, 35.914667 ] } },
{ "type": "Feature", "properties": { "County": "Hartley", "State": "Texas", "Trump": 1868.0, "Biden": 195.0, "Jorgensen": 14.0, "Other": 1.0, "Total": 2078.0, "Winner": "Donald J Trump", "WnrPerc": 0.89894128970163623 }, "geometry": { "type": "Point", "coordinates": [ -102.602013553790442, 35.9464625 ] } },
{ "type": "Feature", "properties": { "County": "Nolan", "State": "Texas", "Trump": 4131.0, "Biden": 1162.0, "Jorgensen": 53.0, "Other": 11.0, "Total": 5357.0, "Winner": "Donald J Trump", "WnrPerc": 0.77114056374836659 }, "geometry": { "type": "Point", "coordinates": [ -100.406941019587748, 32.245174 ] } },
{ "type": "Feature", "properties": { "County": "Wise", "State": "Texas", "Trump": 27032.0, "Biden": 4973.0, "Jorgensen": 310.0, "Other": 50.0, "Total": 32365.0, "Winner": "Donald J Trump", "WnrPerc": 0.83522323497605433 }, "geometry": { "type": "Point", "coordinates": [ -97.656092030201876, 33.201222 ] } },
{ "type": "Feature", "properties": { "County": "Iroquois", "State": "Illinois", "Trump": 10877.0, "Biden": 2908.0, "Jorgensen": 147.0, "Other": 93.0, "Total": 14025.0, "Winner": "Donald J Trump", "WnrPerc": 0.77554367201426022 }, "geometry": { "type": "Point", "coordinates": [ -87.826056550048349, 40.7956535 ] } },
{ "type": "Feature", "properties": { "County": "Kearney", "State": "Nebraska", "Trump": 2822.0, "Biden": 701.0, "Jorgensen": 81.0, "Other": 0.0, "Total": 3604.0, "Winner": "Donald J Trump", "WnrPerc": 0.78301886792452835 }, "geometry": { "type": "Point", "coordinates": [ -98.951735474439886, 40.5014095 ] } },
{ "type": "Feature", "properties": { "County": "Thomas", "State": "Nebraska", "Trump": 377.0, "Biden": 45.0, "Jorgensen": 5.0, "Other": 0.0, "Total": 427.0, "Winner": "Donald J Trump", "WnrPerc": 0.88290398126463698 }, "geometry": { "type": "Point", "coordinates": [ -100.55541652306907, 41.9132755 ] } },
{ "type": "Feature", "properties": { "County": "Ashley", "State": "Arkansas", "Trump": 5548.0, "Biden": 2125.0, "Jorgensen": 25.0, "Other": 228.0, "Total": 7926.0, "Winner": "Donald J Trump", "WnrPerc": 0.69997476659096647 }, "geometry": { "type": "Point", "coordinates": [ -91.796583113888559, 33.196956 ] } },
{ "type": "Feature", "properties": { "County": "Thomas", "State": "Georgia", "Trump": 12954.0, "Biden": 8708.0, "Jorgensen": 191.0, "Other": 0.0, "Total": 21853.0, "Winner": "Donald J Trump", "WnrPerc": 0.59277902347503775 }, "geometry": { "type": "Point", "coordinates": [ -83.90793226991245, 30.873084 ] } },
{ "type": "Feature", "properties": { "County": "Franklin", "State": "Indiana", "Trump": 9691.0, "Biden": 2137.0, "Jorgensen": 169.0, "Other": 3.0, "Total": 12000.0, "Winner": "Donald J Trump", "WnrPerc": 0.80758333333333332 }, "geometry": { "type": "Point", "coordinates": [ -85.056980368377083, 39.422514 ] } },
{ "type": "Feature", "properties": { "County": "Graves", "State": "Kentucky", "Trump": 13206.0, "Biden": 3559.0, "Jorgensen": 187.0, "Other": 66.0, "Total": 17018.0, "Winner": "Donald J Trump", "WnrPerc": 0.77600188036196971 }, "geometry": { "type": "Point", "coordinates": [ -88.65198430106156, 36.716611 ] } },
{ "type": "Feature", "properties": { "County": "Van Buren", "State": "Michigan", "Trump": 21591.0, "Biden": 16803.0, "Jorgensen": 504.0, "Other": 168.0, "Total": 39066.0, "Winner": "Donald J Trump", "WnrPerc": 0.55268007986484413 }, "geometry": { "type": "Point", "coordinates": [ -86.062574205841003, 42.2487725 ] } },
{ "type": "Feature", "properties": { "County": "Neshoba", "State": "Mississippi", "Trump": 8320.0, "Biden": 3260.0, "Jorgensen": 46.0, "Other": 77.0, "Total": 11703.0, "Winner": "Donald J Trump", "WnrPerc": 0.71092882166965732 }, "geometry": { "type": "Point", "coordinates": [ -89.116497188454886, 32.727533 ] } },
{ "type": "Feature", "properties": { "County": "Columbia", "State": "New York", "Trump": 14464.0, "Biden": 20386.0, "Jorgensen": 357.0, "Other": 574.0, "Total": 35781.0, "Winner": "Joseph R Biden Jr", "WnrPerc": 0.56974371873340601 }, "geometry": { "type": "Point", "coordinates": [ -73.633946792383981, 42.2478675 ] } },
{ "type": "Feature", "properties": { "County": "Baker", "State": "Oregon", "Trump": 7352.0, "Biden": 2346.0, "Jorgensen": 144.0, "Other": 90.0, "Total": 9932.0, "Winner": "Donald J Trump", "WnrPerc": 0.74023358840112763 }, "geometry": { "type": "Point", "coordinates": [ -117.798523972665848, 44.6673705 ] } },
{ "type": "Feature", "properties": { "County": "Harlan", "State": "Nebraska", "Trump": 1615.0, "Biden": 282.0, "Jorgensen": 31.0, "Other": 0.0, "Total": 1928.0, "Winner": "Donald J Trump", "WnrPerc": 0.83765560165975106 }, "geometry": { "type": "Point", "coordinates": [ -99.404312636863153, 40.1764755 ] } },
{ "type": "Feature", "properties": { "County": "Dawson", "State": "Nebraska", "Trump": 6524.0, "Biden": 2497.0, "Jorgensen": 157.0, "Other": 0.0, "Total": 9178.0, "Winner": "Donald J Trump", "WnrPerc": 0.7108302462410111 }, "geometry": { "type": "Point", "coordinates": [ -99.82479801317649, 40.7864105 ] } },
{ "type": "Feature", "properties": { "County": "Van Buren", "State": "Arkansas", "Trump": 6034.0, "Biden": 1593.0, "Jorgensen": 54.0, "Other": 126.0, "Total": 7807.0, "Winner": "Donald J Trump", "WnrPerc": 0.77289611886768284 }, "geometry": { "type": "Point", "coordinates": [ -92.527770596697394, 35.608305 ] } },
{ "type": "Feature", "properties": { "County": "Webster", "State": "Iowa", "Trump": 10970.0, "Biden": 6613.0, "Jorgensen": 128.0, "Other": 111.0, "Total": 17822.0, "Winner": "Donald J Trump", "WnrPerc": 0.61553136572775224 }, "geometry": { "type": "Point", "coordinates": [ -94.164615178454042, 42.3409655 ] } },
{ "type": "Feature", "properties": { "County": "Blue Earth", "State": "Minnesota", "Trump": 16731.0, "Biden": 18330.0, "Jorgensen": 477.0, "Other": 513.0, "Total": 36051.0, "Winner": "Joseph R Biden Jr", "WnrPerc": 0.50844636764583506 }, "geometry": { "type": "Point", "coordinates": [ -94.068399976608305, 44.0218185 ] } },
{ "type": "Feature", "properties": { "County": "Prentiss", "State": "Mississippi", "Trump": 8370.0, "Biden": 2153.0, "Jorgensen": 70.0, "Other": 51.0, "Total": 10644.0, "Winner": "Donald J Trump", "WnrPerc": 0.78635851183765504 }, "geometry": { "type": "Point", "coordinates": [ -88.524432772717063, 34.668602 ] } },
{ "type": "Feature", "properties": { "County": "Sandusky", "State": "Ohio", "Trump": 18896.0, "Biden": 10596.0, "Jorgensen": 448.0, "Other": 134.0, "Total": 30074.0, "Winner": "Donald J Trump", "WnrPerc": 0.6283168185143313 }, "geometry": { "type": "Point", "coordinates": [ -83.131509082910839, 41.3964755 ] } },
{ "type": "Feature", "properties": { "County": "Seneca", "State": "Ohio", "Trump": 17086.0, "Biden": 8266.0, "Jorgensen": 357.0, "Other": 101.0, "Total": 25810.0, "Winner": "Donald J Trump", "WnrPerc": 0.66199147617202636 }, "geometry": { "type": "Point", "coordinates": [ -83.126499173035597, 41.0634395 ] } },
{ "type": "Feature", "properties": { "County": "Champaign", "State": "Ohio", "Trump": 14589.0, "Biden": 5062.0, "Jorgensen": 260.0, "Other": 61.0, "Total": 19972.0, "Winner": "Donald J Trump", "WnrPerc": 0.73047266172641701 }, "geometry": { "type": "Point", "coordinates": [ -83.763509056429569, 40.1477065 ] } },
{ "type": "Feature", "properties": { "County": "Moore", "State": "Texas", "Trump": 4359.0, "Biden": 1062.0, "Jorgensen": 66.0, "Other": 21.0, "Total": 5508.0, "Winner": "Donald J Trump", "WnrPerc": 0.79139433551198257 }, "geometry": { "type": "Point", "coordinates": [ -101.893031465242672, 35.841382 ] } },
{ "type": "Feature", "properties": { "County": "Craig", "State": "Oklahoma", "Trump": 4686.0, "Biden": 1217.0, "Jorgensen": 88.0, "Other": 41.0, "Total": 6032.0, "Winner": "Donald J Trump", "WnrPerc": 0.77685676392572944 }, "geometry": { "type": "Point", "coordinates": [ -95.215480573253998, 36.806612 ] } },
{ "type": "Feature", "properties": { "County": "Fond du Lac", "State": "Wisconsin", "Trump": 35754.0, "Biden": 20588.0, "Jorgensen": 686.0, "Other": 223.0, "Total": 57251.0, "Winner": "Donald J Trump", "WnrPerc": 0.6245131089413285 }, "geometry": { "type": "Point", "coordinates": [ -88.523732902347604, 43.720786 ] } },
{ "type": "Feature", "properties": { "County": "Fayette", "State": "Texas", "Trump": 10171.0, "Biden": 2661.0, "Jorgensen": 83.0, "Other": 26.0, "Total": 12941.0, "Winner": "Donald J Trump", "WnrPerc": 0.78595162661309015 }, "geometry": { "type": "Point", "coordinates": [ -96.96164926978598, 29.844741 ] } },
{ "type": "Feature", "properties": { "County": "Webster", "State": "West Virginia", "Trump": 2759.0, "Biden": 610.0, "Jorgensen": 23.0, "Other": 10.0, "Total": 3402.0, "Winner": "Donald J Trump", "WnrPerc": 0.8109935332157554 }, "geometry": { "type": "Point", "coordinates": [ -80.435620719891332, 38.474406 ] } },
{ "type": "Feature", "properties": { "County": "Polk", "State": "Texas", "Trump": 18573.0, "Biden": 5387.0, "Jorgensen": 171.0, "Other": 55.0, "Total": 24186.0, "Winner": "Donald J Trump", "WnrPerc": 0.76792359216075412 }, "geometry": { "type": "Point", "coordinates": [ -94.894566898215061, 30.8130045 ] } },
{ "type": "Feature", "properties": { "County": "Lincoln", "State": "Kentucky", "Trump": 8489.0, "Biden": 2254.0, "Jorgensen": 129.0, "Other": 41.0, "Total": 10913.0, "Winner": "Donald J Trump", "WnrPerc": 0.77787959314578947 }, "geometry": { "type": "Point", "coordinates": [ -84.658010533217791, 37.4472465 ] } },
{ "type": "Feature", "properties": { "County": "Lamb", "State": "Texas", "Trump": 3521.0, "Biden": 840.0, "Jorgensen": 40.0, "Other": 9.0, "Total": 4410.0, "Winner": "Donald J Trump", "WnrPerc": 0.79841269841269846 }, "geometry": { "type": "Point", "coordinates": [ -102.351686741245899, 34.069006 ] } },
{ "type": "Feature", "properties": { "County": "Marion", "State": "Alabama", "Trump": 12205.0, "Biden": 1463.0, "Jorgensen": 0.0, "Other": 139.0, "Total": 13807.0, "Winner": "Donald J Trump", "WnrPerc": 0.88397189831245016 }, "geometry": { "type": "Point", "coordinates": [ -87.916005080005817, 34.1434225 ] } },
{ "type": "Feature", "properties": { "County": "Warren", "State": "Indiana", "Trump": 3401.0, "Biden": 974.0, "Jorgensen": 96.0, "Other": 1.0, "Total": 4472.0, "Winner": "Donald J Trump", "WnrPerc": 0.76050983899821112 }, "geometry": { "type": "Point", "coordinates": [ -87.388485420938153, 40.303996 ] } },
{ "type": "Feature", "properties": { "County": "Comanche", "State": "Kansas", "Trump": 762.0, "Biden": 126.0, "Jorgensen": 28.0, "Other": 0.0, "Total": 916.0, "Winner": "Donald J Trump", "WnrPerc": 0.83187772925764192 }, "geometry": { "type": "Point", "coordinates": [ -99.27156218871346, 37.0961665 ] } },
{ "type": "Feature", "properties": { "County": "Stevens", "State": "Kansas", "Trump": 1760.0, "Biden": 237.0, "Jorgensen": 34.0, "Other": 0.0, "Total": 2031.0, "Winner": "Donald J Trump", "WnrPerc": 0.86656819300837029 }, "geometry": { "type": "Point", "coordinates": [ -101.311409685697043, 37.127460508856949 ] } },
{ "type": "Feature", "properties": { "County": "Hancock", "State": "Maine", "Trump": 14982.0, "Biden": 19369.0, "Jorgensen": 549.0, "Other": 776.0, "Total": 35676.0, "Winner": "Joseph R Biden Jr", "WnrPerc": 0.54291400381208654 }, "geometry": { "type": "Point", "coordinates": [ -68.384280338679474, 44.680215 ] } },
{ "type": "Feature", "properties": { "County": "Antrim", "State": "Michigan", "Trump": 9748.0, "Biden": 5960.0, "Jorgensen": 189.0, "Other": 52.0, "Total": 15949.0, "Winner": "Donald J Trump", "WnrPerc": 0.61119819424415323 }, "geometry": { "type": "Point", "coordinates": [ -85.118024849988359, 45.008497 ] } },
{ "type": "Feature", "properties": { "County": "Carson City", "State": "Nevada", "Trump": 16113.0, "Biden": 12735.0, "Jorgensen": 432.0, "Other": 459.0, "Total": 29739.0, "Winner": "Donald J Trump", "WnrPerc": 0.54181377988499946 }, "geometry": { "type": "Point", "coordinates": [ -119.71901112639749, 39.168373339933197 ] } },
{ "type": "Feature", "properties": { "County": "Orleans", "State": "New York", "Trump": 12126.0, "Biden": 5587.0, "Jorgensen": 313.0, "Other": 288.0, "Total": 18314.0, "Winner": "Donald J Trump", "WnrPerc": 0.66211641367260021 }, "geometry": { "type": "Point", "coordinates": [ -78.229295280117384, 43.237145 ] } },
{ "type": "Feature", "properties": { "County": "Evans", "State": "Georgia", "Trump": 2888.0, "Biden": 1324.0, "Jorgensen": 35.0, "Other": 0.0, "Total": 4247.0, "Winner": "Donald J Trump", "WnrPerc": 0.68000941841299745 }, "geometry": { "type": "Point", "coordinates": [ -81.893780413418938, 32.177823 ] } },
{ "type": "Feature", "properties": { "County": "Randolph", "State": "Georgia", "Trump": 1391.0, "Biden": 1671.0, "Jorgensen": 12.0, "Other": 0.0, "Total": 3074.0, "Winner": "Joseph R Biden Jr", "WnrPerc": 0.54359141184124915 }, "geometry": { "type": "Point", "coordinates": [ -84.77091799846454, 31.771303 ] } },
{ "type": "Feature", "properties": { "County": "Orange", "State": "Indiana", "Trump": 6432.0, "Biden": 2224.0, "Jorgensen": 174.0, "Other": 2.0, "Total": 8832.0, "Winner": "Donald J Trump", "WnrPerc": 0.72826086956521741 }, "geometry": { "type": "Point", "coordinates": [ -86.495548152776749, 38.562643 ] } },
{ "type": "Feature", "properties": { "County": "Buchanan", "State": "Iowa", "Trump": 6430.0, "Biden": 4169.0, "Jorgensen": 96.0, "Other": 79.0, "Total": 10774.0, "Winner": "Donald J Trump", "WnrPerc": 0.59680712827176541 }, "geometry": { "type": "Point", "coordinates": [ -91.844672809858906, 42.5556655 ] } },
{ "type": "Feature", "properties": { "County": "Saline", "State": "Kansas", "Trump": 15722.0, "Biden": 8214.0, "Jorgensen": 595.0, "Other": 0.0, "Total": 24531.0, "Winner": "Donald J Trump", "WnrPerc": 0.64090334678569971 }, "geometry": { "type": "Point", "coordinates": [ -97.649842883218852, 38.8270985 ] } },
{ "type": "Feature", "properties": { "County": "Parke", "State": "Indiana", "Trump": 5400.0, "Biden": 1503.0, "Jorgensen": 110.0, "Other": 0.0, "Total": 7013.0, "Winner": "Donald J Trump", "WnrPerc": 0.76999857407671468 }, "geometry": { "type": "Point", "coordinates": [ -87.194127405407414, 39.779632 ] } },
{ "type": "Feature", "properties": { "County": "Otsego", "State": "Michigan", "Trump": 9779.0, "Biden": 4743.0, "Jorgensen": 177.0, "Other": 58.0, "Total": 14757.0, "Winner": "Donald J Trump", "WnrPerc": 0.66266856407128816 }, "geometry": { "type": "Point", "coordinates": [ -84.611363262317496, 44.943897 ] } },
{ "type": "Feature", "properties": { "County": "Logan", "State": "Nebraska", "Trump": 407.0, "Biden": 38.0, "Jorgensen": 5.0, "Other": 0.0, "Total": 450.0, "Winner": "Donald J Trump", "WnrPerc": 0.9044444444444445 }, "geometry": { "type": "Point", "coordinates": [ -100.481743514090141, 41.566635 ] } },
{ "type": "Feature", "properties": { "County": "Alamance", "State": "North Carolina", "Trump": 46056.0, "Biden": 38825.0, "Jorgensen": 686.0, "Other": 524.0, "Total": 86091.0, "Winner": "Donald J Trump", "WnrPerc": 0.53496881207094815 }, "geometry": { "type": "Point", "coordinates": [ -79.400824234652674, 36.0426925 ] } },
{ "type": "Feature", "properties": { "County": "Hardin", "State": "Ohio", "Trump": 9949.0, "Biden": 3062.0, "Jorgensen": 192.0, "Other": 44.0, "Total": 13247.0, "Winner": "Donald J Trump", "WnrPerc": 0.75103797086132706 }, "geometry": { "type": "Point", "coordinates": [ -83.650005177067641, 40.6657565 ] } },
{ "type": "Feature", "properties": { "County": "Rockingham", "State": "North Carolina", "Trump": 31301.0, "Biden": 15992.0, "Jorgensen": 312.0, "Other": 204.0, "Total": 47809.0, "Winner": "Donald J Trump", "WnrPerc": 0.65470936434562532 }, "geometry": { "type": "Point", "coordinates": [ -79.775308743780727, 36.434125431033699 ] } },
{ "type": "Feature", "properties": { "County": "Eddy", "State": "North Dakota", "Trump": 854.0, "Biden": 383.0, "Jorgensen": 22.0, "Other": 2.0, "Total": 1261.0, "Winner": "Donald J Trump", "WnrPerc": 0.6772402854877082 }, "geometry": { "type": "Point", "coordinates": [ -98.911356966094104, 47.759631 ] } },
{ "type": "Feature", "properties": { "County": "Jack", "State": "Texas", "Trump": 3418.0, "Biden": 331.0, "Jorgensen": 24.0, "Other": 9.0, "Total": 3782.0, "Winner": "Donald J Trump", "WnrPerc": 0.90375462718138555 }, "geometry": { "type": "Point", "coordinates": [ -98.171824459618136, 33.202054 ] } },
{ "type": "Feature", "properties": { "County": "Turner", "State": "South Dakota", "Trump": 3290.0, "Biden": 1139.0, "Jorgensen": 119.0, "Other": 0.0, "Total": 4548.0, "Winner": "Donald J Trump", "WnrPerc": 0.72339489885664032 }, "geometry": { "type": "Point", "coordinates": [ -97.162663552151571, 43.3788085 ] } },
{ "type": "Feature", "properties": { "County": "Haskell", "State": "Texas", "Trump": 1840.0, "Biden": 353.0, "Jorgensen": 15.0, "Other": 6.0, "Total": 2214.0, "Winner": "Donald J Trump", "WnrPerc": 0.83107497741644087 }, "geometry": { "type": "Point", "coordinates": [ -99.730878240797466, 33.1787625 ] } },
{ "type": "Feature", "properties": { "County": "Erath", "State": "Texas", "Trump": 13684.0, "Biden": 2916.0, "Jorgensen": 218.0, "Other": 38.0, "Total": 16856.0, "Winner": "Donald J Trump", "WnrPerc": 0.81181775035595638 }, "geometry": { "type": "Point", "coordinates": [ -98.189574828840477, 32.154533 ] } },
{ "type": "Feature", "properties": { "County": "Greene", "State": "New York", "Trump": 14271.0, "Biden": 10346.0, "Jorgensen": 305.0, "Other": 398.0, "Total": 25320.0, "Winner": "Donald J Trump", "WnrPerc": 0.56362559241706156 }, "geometry": { "type": "Point", "coordinates": [ -74.139525156720907, 42.2710055 ] } },
{ "type": "Feature", "properties": { "County": "Morrill", "State": "Nebraska", "Trump": 2113.0, "Biden": 386.0, "Jorgensen": 58.0, "Other": 0.0, "Total": 2557.0, "Winner": "Donald J Trump", "WnrPerc": 0.82635901447008209 }, "geometry": { "type": "Point", "coordinates": [ -103.003123146010978, 41.721022 ] } },
{ "type": "Feature", "properties": { "County": "Kankakee", "State": "Illinois", "Trump": 28532.0, "Biden": 20271.0, "Jorgensen": 804.0, "Other": 295.0, "Total": 49902.0, "Winner": "Donald J Trump", "WnrPerc": 0.57176065087571637 }, "geometry": { "type": "Point", "coordinates": [ -87.884354592959639, 41.14444 ] } },
{ "type": "Feature", "properties": { "County": "Davis", "State": "Iowa", "Trump": 3035.0, "Biden": 1013.0, "Jorgensen": 30.0, "Other": 24.0, "Total": 4102.0, "Winner": "Donald J Trump", "WnrPerc": 0.73988298391028762 }, "geometry": { "type": "Point", "coordinates": [ -92.408970112084774, 40.7497075 ] } },
{ "type": "Feature", "properties": { "County": "Union", "State": "New Jersey", "Trump": 80002.0, "Biden": 170245.0, "Jorgensen": 1427.0, "Other": 1317.0, "Total": 252991.0, "Winner": "Joseph R Biden Jr", "WnrPerc": 0.67292907652841405 }, "geometry": { "type": "Point", "coordinates": [ -74.273687818226335, 40.665825 ] } },
{ "type": "Feature", "properties": { "County": "Mahoning", "State": "Ohio", "Trump": 59903.0, "Biden": 57641.0, "Jorgensen": 966.0, "Other": 456.0, "Total": 118966.0, "Winner": "Donald J Trump", "WnrPerc": 0.50353042045626484 }, "geometry": { "type": "Point", "coordinates": [ -80.760546033255949, 41.0384665 ] } },
{ "type": "Feature", "properties": { "County": "Box Butte", "State": "Nebraska", "Trump": 4002.0, "Biden": 1051.0, "Jorgensen": 128.0, "Other": 0.0, "Total": 5181.0, "Winner": "Donald J Trump", "WnrPerc": 0.77243775332947306 }, "geometry": { "type": "Point", "coordinates": [ -103.094096450682684, 42.213844 ] } },
{ "type": "Feature", "properties": { "County": "Oldham", "State": "Texas", "Trump": 917.0, "Biden": 81.0, "Jorgensen": 10.0, "Other": 1.0, "Total": 1009.0, "Winner": "Donald J Trump", "WnrPerc": 0.90882061446977203 }, "geometry": { "type": "Point", "coordinates": [ -102.60335660556828, 35.4350455 ] } },
{ "type": "Feature", "properties": { "County": "Washington", "State": "Virginia", "Trump": 21679.0, "Biden": 6617.0, "Jorgensen": 304.0, "Other": 93.0, "Total": 28693.0, "Winner": "Donald J Trump", "WnrPerc": 0.75555013417906802 }, "geometry": { "type": "Point", "coordinates": [ -81.966792381324893, 36.748871 ] } },
{ "type": "Feature", "properties": { "County": "Pope", "State": "Arkansas", "Trump": 18081.0, "Biden": 5772.0, "Jorgensen": 240.0, "Other": 339.0, "Total": 24432.0, "Winner": "Donald J Trump", "WnrPerc": 0.74005402750491156 }, "geometry": { "type": "Point", "coordinates": [ -93.074266236102233, 35.422877 ] } },
{ "type": "Feature", "properties": { "County": "Pike", "State": "Georgia", "Trump": 9127.0, "Biden": 1505.0, "Jorgensen": 88.0, "Other": 0.0, "Total": 10720.0, "Winner": "Donald J Trump", "WnrPerc": 0.85139925373134329 }, "geometry": { "type": "Point", "coordinates": [ -84.3814900491804, 33.1040855 ] } },
{ "type": "Feature", "properties": { "County": "McDonough", "State": "Illinois", "Trump": 7027.0, "Biden": 4992.0, "Jorgensen": 173.0, "Other": 93.0, "Total": 12285.0, "Winner": "Donald J Trump", "WnrPerc": 0.571998371998372 }, "geometry": { "type": "Point", "coordinates": [ -90.677475255167522, 40.456016 ] } },
{ "type": "Feature", "properties": { "County": "Adams", "State": "Iowa", "Trump": 1535.0, "Biden": 590.0, "Jorgensen": 27.0, "Other": 8.0, "Total": 2160.0, "Winner": "Donald J Trump", "WnrPerc": 0.71064814814814814 }, "geometry": { "type": "Point", "coordinates": [ -94.69923833679178, 41.071888 ] } },
{ "type": "Feature", "properties": { "County": "Woodson", "State": "Kansas", "Trump": 1228.0, "Biden": 294.0, "Jorgensen": 24.0, "Other": 0.0, "Total": 1546.0, "Winner": "Donald J Trump", "WnrPerc": 0.79430789133247093 }, "geometry": { "type": "Point", "coordinates": [ -95.739687648391822, 37.9301075 ] } },
{ "type": "Feature", "properties": { "County": "Jefferson", "State": "Idaho", "Trump": 12099.0, "Biden": 1661.0, "Jorgensen": 252.0, "Other": 161.0, "Total": 14173.0, "Winner": "Donald J Trump", "WnrPerc": 0.85366542016510261 }, "geometry": { "type": "Point", "coordinates": [ -112.336725039400932, 43.8626375 ] } },
{ "type": "Feature", "properties": { "County": "Smith", "State": "Mississippi", "Trump": 6458.0, "Biden": 1791.0, "Jorgensen": 33.0, "Other": 45.0, "Total": 8327.0, "Winner": "Donald J Trump", "WnrPerc": 0.77554941755734363 }, "geometry": { "type": "Point", "coordinates": [ -89.488086338948591, 31.994177 ] } },
{ "type": "Feature", "properties": { "County": "Rice", "State": "Minnesota", "Trump": 17464.0, "Biden": 17402.0, "Jorgensen": 372.0, "Other": 448.0, "Total": 35686.0, "Winner": "Donald J Trump", "WnrPerc": 0.48937958863419828 }, "geometry": { "type": "Point", "coordinates": [ -93.282761326447911, 44.326908 ] } },
{ "type": "Feature", "properties": { "County": "Okfuskee", "State": "Oklahoma", "Trump": 3058.0, "Biden": 896.0, "Jorgensen": 49.0, "Other": 35.0, "Total": 4038.0, "Winner": "Donald J Trump", "WnrPerc": 0.75730559683011389 }, "geometry": { "type": "Point", "coordinates": [ -96.264438098155011, 35.4658515 ] } },
{ "type": "Feature", "properties": { "County": "Ellis", "State": "Texas", "Trump": 56717.0, "Biden": 27565.0, "Jorgensen": 954.0, "Other": 257.0, "Total": 85493.0, "Winner": "Donald J Trump", "WnrPerc": 0.66341103950031 }, "geometry": { "type": "Point", "coordinates": [ -96.763202503368831, 32.3015855 ] } },
{ "type": "Feature", "properties": { "County": "Winchester", "State": "Virginia", "Trump": 5221.0, "Biden": 6610.0, "Jorgensen": 213.0, "Other": 69.0, "Total": 12113.0, "Winner": "Joseph R Biden Jr", "WnrPerc": 0.54569470816478161 }, "geometry": { "type": "Point", "coordinates": [ -78.176717577070903, 39.15867 ] } },
{ "type": "Feature", "properties": { "County": "Salem", "State": "Virginia", "Trump": 7683.0, "Biden": 5148.0, "Jorgensen": 220.0, "Other": 0.0, "Total": 13051.0, "Winner": "Donald J Trump", "WnrPerc": 0.58869052179909587 }, "geometry": { "type": "Point", "coordinates": [ -80.06210001320926, 37.2921925 ] } },
{ "type": "Feature", "properties": { "County": "Roanoke", "State": "Virginia", "Trump": 15607.0, "Biden": 26773.0, "Jorgensen": 777.0, "Other": 166.0, "Total": 43323.0, "Winner": "Joseph R Biden Jr", "WnrPerc": 0.61798582738960828 }, "geometry": { "type": "Point", "coordinates": [ -79.965492770896844, 37.2758515 ] } },
{ "type": "Feature", "properties": { "County": "Delta", "State": "Texas", "Trump": 2162.0, "Biden": 403.0, "Jorgensen": 24.0, "Other": 3.0, "Total": 2592.0, "Winner": "Donald J Trump", "WnrPerc": 0.83410493827160492 }, "geometry": { "type": "Point", "coordinates": [ -95.723752797841428, 33.357969 ] } },
{ "type": "Feature", "properties": { "County": "Piatt", "State": "Illinois", "Trump": 6248.0, "Biden": 3329.0, "Jorgensen": 168.0, "Other": 77.0, "Total": 9822.0, "Winner": "Donald J Trump", "WnrPerc": 0.63612298920790067 }, "geometry": { "type": "Point", "coordinates": [ -88.603932160970245, 39.9671415 ] } },
{ "type": "Feature", "properties": { "County": "Thayer", "State": "Nebraska", "Trump": 2308.0, "Biden": 624.0, "Jorgensen": 48.0, "Other": 0.0, "Total": 2980.0, "Winner": "Donald J Trump", "WnrPerc": 0.77449664429530196 }, "geometry": { "type": "Point", "coordinates": [ -97.595049571481752, 40.1762795 ] } },
{ "type": "Feature", "properties": { "County": "Pike", "State": "Ohio", "Trump": 9157.0, "Biden": 3110.0, "Jorgensen": 123.0, "Other": 22.0, "Total": 12412.0, "Winner": "Donald J Trump", "WnrPerc": 0.73775378665807279 }, "geometry": { "type": "Point", "coordinates": [ -83.082089171315147, 39.111983 ] } },
{ "type": "Feature", "properties": { "County": "Parmer", "State": "Texas", "Trump": 2135.0, "Biden": 488.0, "Jorgensen": 23.0, "Other": 4.0, "Total": 2650.0, "Winner": "Donald J Trump", "WnrPerc": 0.80566037735849061 }, "geometry": { "type": "Point", "coordinates": [ -102.784364461057578, 34.541221 ] } },
{ "type": "Feature", "properties": { "County": "Lincoln", "State": "New Mexico", "Trump": 6942.0, "Biden": 3194.0, "Jorgensen": 113.0, "Other": 57.0, "Total": 10306.0, "Winner": "Donald J Trump", "WnrPerc": 0.67358820104793327 }, "geometry": { "type": "Point", "coordinates": [ -105.472143436043837, 33.704499 ] } },
{ "type": "Feature", "properties": { "County": "Lee", "State": "Illinois", "Trump": 9630.0, "Biden": 6407.0, "Jorgensen": 229.0, "Other": 131.0, "Total": 16397.0, "Winner": "Donald J Trump", "WnrPerc": 0.58730255534549003 }, "geometry": { "type": "Point", "coordinates": [ -89.285399199786923, 41.6933955 ] } },
{ "type": "Feature", "properties": { "County": "Gooding", "State": "Idaho", "Trump": 4659.0, "Biden": 1256.0, "Jorgensen": 67.0, "Other": 68.0, "Total": 6050.0, "Winner": "Donald J Trump", "WnrPerc": 0.77008264462809917 }, "geometry": { "type": "Point", "coordinates": [ -114.840505804607872, 43.0579085 ] } },
{ "type": "Feature", "properties": { "County": "Castro", "State": "Texas", "Trump": 1602.0, "Biden": 466.0, "Jorgensen": 9.0, "Other": 6.0, "Total": 2083.0, "Winner": "Donald J Trump", "WnrPerc": 0.76908305328852622 }, "geometry": { "type": "Point", "coordinates": [ -102.261831654030487, 34.529895 ] } },
{ "type": "Feature", "properties": { "County": "Macon", "State": "Illinois", "Trump": 28589.0, "Biden": 19847.0, "Jorgensen": 597.0, "Other": 357.0, "Total": 49390.0, "Winner": "Donald J Trump", "WnrPerc": 0.57884187082405347 }, "geometry": { "type": "Point", "coordinates": [ -88.98158453944572, 39.884975 ] } },
{ "type": "Feature", "properties": { "County": "Story", "State": "Iowa", "Trump": 20541.0, "Biden": 29175.0, "Jorgensen": 924.0, "Other": 398.0, "Total": 51038.0, "Winner": "Joseph R Biden Jr", "WnrPerc": 0.5716329009757436 }, "geometry": { "type": "Point", "coordinates": [ -93.465154080932223, 42.121723 ] } },
{ "type": "Feature", "properties": { "County": "Marshall", "State": "Illinois", "Trump": 4197.0, "Biden": 2005.0, "Jorgensen": 94.0, "Other": 38.0, "Total": 6334.0, "Winner": "Donald J Trump", "WnrPerc": 0.66261446163561732 }, "geometry": { "type": "Point", "coordinates": [ -89.34308159891161, 41.038778 ] } },
{ "type": "Feature", "properties": { "County": "Wapello", "State": "Iowa", "Trump": 9536.0, "Biden": 5821.0, "Jorgensen": 200.0, "Other": 76.0, "Total": 15633.0, "Winner": "Donald J Trump", "WnrPerc": 0.60999168425766004 }, "geometry": { "type": "Point", "coordinates": [ -92.409624339309858, 41.030509 ] } },
{ "type": "Feature", "properties": { "County": "Saline", "State": "Illinois", "Trump": 8103.0, "Biden": 2789.0, "Jorgensen": 124.0, "Other": 50.0, "Total": 11066.0, "Winner": "Donald J Trump", "WnrPerc": 0.73224290619916865 }, "geometry": { "type": "Point", "coordinates": [ -88.54134907863137, 37.731541 ] } },
{ "type": "Feature", "properties": { "County": "Loudon", "State": "Tennessee", "Trump": 21713.0, "Biden": 6948.0, "Jorgensen": 0.0, "Other": 686.0, "Total": 29347.0, "Winner": "Donald J Trump", "WnrPerc": 0.73987119637441645 }, "geometry": { "type": "Point", "coordinates": [ -84.289615037009114, 35.7554045 ] } },
{ "type": "Feature", "properties": { "County": "Shelby", "State": "Illinois", "Trump": 9426.0, "Biden": 2504.0, "Jorgensen": 109.0, "Other": 58.0, "Total": 12097.0, "Winner": "Donald J Trump", "WnrPerc": 0.77920145490617509 }, "geometry": { "type": "Point", "coordinates": [ -88.748115728388967, 39.410778 ] } },
{ "type": "Feature", "properties": { "County": "Butler", "State": "Iowa", "Trump": 5556.0, "Biden": 2424.0, "Jorgensen": 68.0, "Other": 50.0, "Total": 8098.0, "Winner": "Donald J Trump", "WnrPerc": 0.68609533218078533 }, "geometry": { "type": "Point", "coordinates": [ -92.789983793411906, 42.8186195 ] } },
{ "type": "Feature", "properties": { "County": "Chickasaw", "State": "Iowa", "Trump": 4322.0, "Biden": 2233.0, "Jorgensen": 47.0, "Other": 29.0, "Total": 6631.0, "Winner": "Donald J Trump", "WnrPerc": 0.65178706077514703 }, "geometry": { "type": "Point", "coordinates": [ -92.317808364725508, 42.994953 ] } },
{ "type": "Feature", "properties": { "County": "Overton", "State": "Tennessee", "Trump": 7918.0, "Biden": 2033.0, "Jorgensen": 0.0, "Other": 86.0, "Total": 10037.0, "Winner": "Donald J Trump", "WnrPerc": 0.78888113978280361 }, "geometry": { "type": "Point", "coordinates": [ -85.308810528265994, 36.351726 ] } },
{ "type": "Feature", "properties": { "County": "Johnson", "State": "Indiana", "Trump": 51219.0, "Biden": 24736.0, "Jorgensen": 1618.0, "Other": 45.0, "Total": 77618.0, "Winner": "Donald J Trump", "WnrPerc": 0.65988559354788834 }, "geometry": { "type": "Point", "coordinates": [ -86.101922110485049, 39.450096 ] } },
{ "type": "Feature", "properties": { "County": "Saline", "State": "Nebraska", "Trump": 3631.0, "Biden": 1986.0, "Jorgensen": 153.0, "Other": 0.0, "Total": 5770.0, "Winner": "Donald J Trump", "WnrPerc": 0.62928942807625654 }, "geometry": { "type": "Point", "coordinates": [ -97.140769196525738, 40.6107865 ] } },
{ "type": "Feature", "properties": { "County": "Escambia", "State": "Florida", "Trump": 96674.0, "Biden": 70929.0, "Jorgensen": 2146.0, "Other": 623.0, "Total": 170372.0, "Winner": "Donald J Trump", "WnrPerc": 0.56742892024511071 }, "geometry": { "type": "Point", "coordinates": [ -87.32686307183755, 30.637409 ] } },
{ "type": "Feature", "properties": { "County": "Marshall", "State": "Mississippi", "Trump": 7566.0, "Biden": 8057.0, "Jorgensen": 48.0, "Other": 146.0, "Total": 15817.0, "Winner": "Joseph R Biden Jr", "WnrPerc": 0.50938863248403621 }, "geometry": { "type": "Point", "coordinates": [ -89.51117511375034, 34.7576595 ] } },
{ "type": "Feature", "properties": { "County": "Custer", "State": "Nebraska", "Trump": 5090.0, "Biden": 786.0, "Jorgensen": 117.0, "Other": 0.0, "Total": 5993.0, "Winner": "Donald J Trump", "WnrPerc": 0.8493242115801769 }, "geometry": { "type": "Point", "coordinates": [ -99.727182107623975, 41.393732 ] } },
{ "type": "Feature", "properties": { "County": "Rock", "State": "Nebraska", "Trump": 744.0, "Biden": 84.0, "Jorgensen": 13.0, "Other": 0.0, "Total": 841.0, "Winner": "Donald J Trump", "WnrPerc": 0.88466111771700362 }, "geometry": { "type": "Point", "coordinates": [ -99.460945711621093, 42.5761325 ] } },
{ "type": "Feature", "properties": { "County": "La Paz", "State": "Arizona", "Trump": 5129.0, "Biden": 2236.0, "Jorgensen": 93.0, "Other": 0.0, "Total": 7458.0, "Winner": "Donald J Trump", "WnrPerc": 0.68771788683293111 }, "geometry": { "type": "Point", "coordinates": [ -113.932944644933286, 33.673105 ] } },
{ "type": "Feature", "properties": { "County": "Benton", "State": "Indiana", "Trump": 3007.0, "Biden": 1009.0, "Jorgensen": 92.0, "Other": 6.0, "Total": 4114.0, "Winner": "Donald J Trump", "WnrPerc": 0.73091881380651436 }, "geometry": { "type": "Point", "coordinates": [ -87.311164667720206, 40.647511 ] } },
{ "type": "Feature", "properties": { "County": "Emporia", "State": "Virginia", "Trump": 754.0, "Biden": 1612.0, "Jorgensen": 13.0, "Other": 5.0, "Total": 2384.0, "Winner": "Joseph R Biden Jr", "WnrPerc": 0.6761744966442953 }, "geometry": { "type": "Point", "coordinates": [ -77.534536473218935, 36.694843 ] } },
{ "type": "Feature", "properties": { "County": "Washington", "State": "Utah", "Trump": 67294.0, "Biden": 20530.0, "Jorgensen": 1742.0, "Other": 1504.0, "Total": 91070.0, "Winner": "Donald J Trump", "WnrPerc": 0.73892610080158116 }, "geometry": { "type": "Point", "coordinates": [ -113.476548657902583, 37.3320035 ] } },
{ "type": "Feature", "properties": { "County": "Pierce", "State": "Washington", "Trump": 197730.0, "Biden": 249506.0, "Jorgensen": 10495.0, "Other": 6350.0, "Total": 464081.0, "Winner": "Joseph R Biden Jr", "WnrPerc": 0.53763459396096802 }, "geometry": { "type": "Point", "coordinates": [ -122.035615553535479, 47.0283675 ] } },
{ "type": "Feature", "properties": { "County": "Palo Alto", "State": "Iowa", "Trump": 3378.0, "Biden": 1519.0, "Jorgensen": 43.0, "Other": 18.0, "Total": 4958.0, "Winner": "Donald J Trump", "WnrPerc": 0.68132311415893509 }, "geometry": { "type": "Point", "coordinates": [ -94.678339600419918, 43.0392925 ] } },
{ "type": "Feature", "properties": { "County": "Christian", "State": "Illinois", "Trump": 11563.0, "Biden": 4335.0, "Jorgensen": 210.0, "Other": 96.0, "Total": 16204.0, "Winner": "Donald J Trump", "WnrPerc": 0.71358923722537648 }, "geometry": { "type": "Point", "coordinates": [ -89.280023534481643, 39.57567 ] } },
{ "type": "Feature", "properties": { "County": "Hand", "State": "South Dakota", "Trump": 1433.0, "Biden": 373.0, "Jorgensen": 30.0, "Other": 0.0, "Total": 1836.0, "Winner": "Donald J Trump", "WnrPerc": 0.7805010893246187 }, "geometry": { "type": "Point", "coordinates": [ -99.000615154080975, 44.3720095 ] } },
{ "type": "Feature", "properties": { "County": "Hanson", "State": "South Dakota", "Trump": 1793.0, "Biden": 557.0, "Jorgensen": 38.0, "Other": 0.0, "Total": 2388.0, "Winner": "Donald J Trump", "WnrPerc": 0.75083752093802347 }, "geometry": { "type": "Point", "coordinates": [ -97.786811625013854, 43.631218 ] } },
{ "type": "Feature", "properties": { "County": "McCook", "State": "South Dakota", "Trump": 2068.0, "Biden": 769.0, "Jorgensen": 63.0, "Other": 0.0, "Total": 2900.0, "Winner": "Donald J Trump", "WnrPerc": 0.71310344827586203 }, "geometry": { "type": "Point", "coordinates": [ -97.368635327737536, 43.630476 ] } },
{ "type": "Feature", "properties": { "County": "Jerauld", "State": "South Dakota", "Trump": 721.0, "Biden": 270.0, "Jorgensen": 15.0, "Other": 0.0, "Total": 1006.0, "Winner": "Donald J Trump", "WnrPerc": 0.71669980119284293 }, "geometry": { "type": "Point", "coordinates": [ -98.629089395775509, 44.0671415 ] } },
{ "type": "Feature", "properties": { "County": "Berkshire", "State": "Massachusetts", "Trump": 18064.0, "Biden": 51705.0, "Jorgensen": 927.0, "Other": 1075.0, "Total": 71771.0, "Winner": "Joseph R Biden Jr", "WnrPerc": 0.72041632414206291 }, "geometry": { "type": "Point", "coordinates": [ -73.197252048397985, 42.407296623101047 ] } },
{ "type": "Feature", "properties": { "County": "Hickory", "State": "Missouri", "Trump": 3966.0, "Biden": 1056.0, "Jorgensen": 39.0, "Other": 19.0, "Total": 5080.0, "Winner": "Donald J Trump", "WnrPerc": 0.78070866141732287 }, "geometry": { "type": "Point", "coordinates": [ -93.288402764612016, 37.9886985 ] } },
{ "type": "Feature", "properties": { "County": "Lewis", "State": "Tennessee", "Trump": 4474.0, "Biden": 1072.0, "Jorgensen": 0.0, "Other": 63.0, "Total": 5609.0, "Winner": "Donald J Trump", "WnrPerc": 0.79764663932964874 }, "geometry": { "type": "Point", "coordinates": [ -87.48638319767737, 35.5240035 ] } },
{ "type": "Feature", "properties": { "County": "Ralls", "State": "Missouri", "Trump": 4396.0, "Biden": 1205.0, "Jorgensen": 51.0, "Other": 10.0, "Total": 5662.0, "Winner": "Donald J Trump", "WnrPerc": 0.7764040974920523 }, "geometry": { "type": "Point", "coordinates": [ -91.499360534264667, 39.550331 ] } },
{ "type": "Feature", "properties": { "County": "Martin", "State": "Minnesota", "Trump": 7480.0, "Biden": 3305.0, "Jorgensen": 98.0, "Other": 126.0, "Total": 11009.0, "Winner": "Donald J Trump", "WnrPerc": 0.67944409119811067 }, "geometry": { "type": "Point", "coordinates": [ -94.551021691541877, 43.6742925 ] } },
{ "type": "Feature", "properties": { "County": "Antelope", "State": "Nebraska", "Trump": 3093.0, "Biden": 452.0, "Jorgensen": 38.0, "Other": 0.0, "Total": 3583.0, "Winner": "Donald J Trump", "WnrPerc": 0.86324309238068653 }, "geometry": { "type": "Point", "coordinates": [ -98.067448328158434, 42.2633315 ] } },
{ "type": "Feature", "properties": { "County": "Campbell", "State": "Wyoming", "Trump": 16975.0, "Biden": 1935.0, "Jorgensen": 434.0, "Other": 391.0, "Total": 19735.0, "Winner": "Donald J Trump", "WnrPerc": 0.86014694704839123 }, "geometry": { "type": "Point", "coordinates": [ -105.549839653817543, 44.350383 ] } },
{ "type": "Feature", "properties": { "County": "Platte", "State": "Wyoming", "Trump": 3898.0, "Biden": 890.0, "Jorgensen": 65.0, "Other": 110.0, "Total": 4963.0, "Winner": "Donald J Trump", "WnrPerc": 0.78541204916381224 }, "geometry": { "type": "Point", "coordinates": [ -104.965807041606695, 42.210205 ] } },
{ "type": "Feature", "properties": { "County": "Washington", "State": "Missouri", "Trump": 8047.0, "Biden": 1804.0, "Jorgensen": 94.0, "Other": 31.0, "Total": 9976.0, "Winner": "Donald J Trump", "WnrPerc": 0.80663592622293501 }, "geometry": { "type": "Point", "coordinates": [ -90.867852580343396, 38.0172185 ] } },
{ "type": "Feature", "properties": { "County": "Knox", "State": "Missouri", "Trump": 1486.0, "Biden": 340.0, "Jorgensen": 26.0, "Other": 2.0, "Total": 1854.0, "Winner": "Donald J Trump", "WnrPerc": 0.80151024811218985 }, "geometry": { "type": "Point", "coordinates": [ -92.147946315238102, 40.1255045 ] } },
{ "type": "Feature", "properties": { "County": "Maries", "State": "Missouri", "Trump": 3892.0, "Biden": 814.0, "Jorgensen": 50.0, "Other": 15.0, "Total": 4771.0, "Winner": "Donald J Trump", "WnrPerc": 0.81576189478096839 }, "geometry": { "type": "Point", "coordinates": [ -91.907219943109425, 38.103381 ] } },
{ "type": "Feature", "properties": { "County": "Pocahontas", "State": "Iowa", "Trump": 2832.0, "Biden": 933.0, "Jorgensen": 37.0, "Other": 21.0, "Total": 3823.0, "Winner": "Donald J Trump", "WnrPerc": 0.74077949254512165 }, "geometry": { "type": "Point", "coordinates": [ -94.678567566445608, 42.7766185 ] } },
{ "type": "Feature", "properties": { "County": "Lafayette", "State": "Louisiana", "Trump": 72519.0, "Biden": 39685.0, "Jorgensen": 1512.0, "Other": 805.0, "Total": 114521.0, "Winner": "Donald J Trump", "WnrPerc": 0.63323757214833964 }, "geometry": { "type": "Point", "coordinates": [ -92.111928732117306, 30.2070655 ] } },
{ "type": "Feature", "properties": { "County": "Russell", "State": "Alabama", "Trump": 9864.0, "Biden": 11228.0, "Jorgensen": 0.0, "Other": 237.0, "Total": 21329.0, "Winner": "Joseph R Biden Jr", "WnrPerc": 0.52641942894650473 }, "geometry": { "type": "Point", "coordinates": [ -85.172644370425019, 32.2801005 ] } },
{ "type": "Feature", "properties": { "County": "Hayes", "State": "Nebraska", "Trump": 494.0, "Biden": 34.0, "Jorgensen": 6.0, "Other": 0.0, "Total": 534.0, "Winner": "Donald J Trump", "WnrPerc": 0.92509363295880154 }, "geometry": { "type": "Point", "coordinates": [ -101.062205006122554, 40.515299 ] } },
{ "type": "Feature", "properties": { "County": "Dickey", "State": "North Dakota", "Trump": 1742.0, "Biden": 608.0, "Jorgensen": 63.0, "Other": 11.0, "Total": 2424.0, "Winner": "Donald J Trump", "WnrPerc": 0.71864686468646866 }, "geometry": { "type": "Point", "coordinates": [ -98.505918923637807, 46.1112851545642 ] } },
{ "type": "Feature", "properties": { "County": "Washtenaw", "State": "Michigan", "Trump": 56241.0, "Biden": 157136.0, "Jorgensen": 1956.0, "Other": 1085.0, "Total": 216418.0, "Winner": "Joseph R Biden Jr", "WnrPerc": 0.72607638920977002 }, "geometry": { "type": "Point", "coordinates": [ -83.837198669771922, 42.2562485 ] } },
{ "type": "Feature", "properties": { "County": "Cleburne", "State": "Arkansas", "Trump": 10328.0, "Biden": 1988.0, "Jorgensen": 105.0, "Other": 259.0, "Total": 12680.0, "Winner": "Donald J Trump", "WnrPerc": 0.8145110410094637 }, "geometry": { "type": "Point", "coordinates": [ -92.019417299037059, 35.535978 ] } },
{ "type": "Feature", "properties": { "County": "Platte", "State": "Nebraska", "Trump": 12186.0, "Biden": 3260.0, "Jorgensen": 227.0, "Other": 0.0, "Total": 15673.0, "Winner": "Donald J Trump", "WnrPerc": 0.77751547246857655 }, "geometry": { "type": "Point", "coordinates": [ -97.541280468505335, 41.569734 ] } },
{ "type": "Feature", "properties": { "County": "Lafayette", "State": "Wisconsin", "Trump": 4821.0, "Biden": 3647.0, "Jorgensen": 57.0, "Other": 30.0, "Total": 8555.0, "Winner": "Donald J Trump", "WnrPerc": 0.56353009935710108 }, "geometry": { "type": "Point", "coordinates": [ -90.131638946356901, 42.660723 ] } },
{ "type": "Feature", "properties": { "County": "Langlade", "State": "Wisconsin", "Trump": 7330.0, "Biden": 3704.0, "Jorgensen": 94.0, "Other": 37.0, "Total": 11165.0, "Winner": "Donald J Trump", "WnrPerc": 0.65651589789520826 }, "geometry": { "type": "Point", "coordinates": [ -89.052216556208322, 45.2918155 ] } },
{ "type": "Feature", "properties": { "County": "Henry", "State": "Ohio", "Trump": 10479.0, "Biden": 4062.0, "Jorgensen": 175.0, "Other": 48.0, "Total": 14764.0, "Winner": "Donald J Trump", "WnrPerc": 0.70976700081278787 }, "geometry": { "type": "Point", "coordinates": [ -84.055262238012887, 41.2911635 ] } },
{ "type": "Feature", "properties": { "County": "Schuylkill", "State": "Pennsylvania", "Trump": 48871.0, "Biden": 20727.0, "Jorgensen": 1005.0, "Other": 0.0, "Total": 70603.0, "Winner": "Donald J Trump", "WnrPerc": 0.69219438267495714 }, "geometry": { "type": "Point", "coordinates": [ -76.163029786831089, 40.7192705 ] } },
{ "type": "Feature", "properties": { "County": "Oregon", "State": "Missouri", "Trump": 3847.0, "Biden": 823.0, "Jorgensen": 58.0, "Other": 11.0, "Total": 4739.0, "Winner": "Donald J Trump", "WnrPerc": 0.81177463599915589 }, "geometry": { "type": "Point", "coordinates": [ -91.398948798918951, 36.7025705 ] } },
{ "type": "Feature", "properties": { "County": "Sullivan", "State": "Pennsylvania", "Trump": 2619.0, "Biden": 921.0, "Jorgensen": 55.0, "Other": 0.0, "Total": 3595.0, "Winner": "Donald J Trump", "WnrPerc": 0.72851182197496522 }, "geometry": { "type": "Point", "coordinates": [ -76.508780316692906, 41.4583545 ] } },
{ "type": "Feature", "properties": { "County": "Banner", "State": "Nebraska", "Trump": 362.0, "Biden": 43.0, "Jorgensen": 5.0, "Other": 0.0, "Total": 410.0, "Winner": "Donald J Trump", "WnrPerc": 0.88292682926829269 }, "geometry": { "type": "Point", "coordinates": [ -103.711110782783308, 41.546902 ] } },
{ "type": "Feature", "properties": { "County": "Chase", "State": "Nebraska", "Trump": 1740.0, "Biden": 226.0, "Jorgensen": 27.0, "Other": 0.0, "Total": 1993.0, "Winner": "Donald J Trump", "WnrPerc": 0.87305569493226287 }, "geometry": { "type": "Point", "coordinates": [ -101.697866662312407, 40.5289665 ] } },
{ "type": "Feature", "properties": { "County": "Gray", "State": "Texas", "Trump": 6840.0, "Biden": 829.0, "Jorgensen": 97.0, "Other": 16.0, "Total": 7782.0, "Winner": "Donald J Trump", "WnrPerc": 0.87895142636854284 }, "geometry": { "type": "Point", "coordinates": [ -100.812837670034725, 35.401123 ] } },
{ "type": "Feature", "properties": { "County": "Wells", "State": "North Dakota", "Trump": 1893.0, "Biden": 442.0, "Jorgensen": 32.0, "Other": 7.0, "Total": 2374.0, "Winner": "Donald J Trump", "WnrPerc": 0.79738837405223251 }, "geometry": { "type": "Point", "coordinates": [ -99.649558051186318, 47.4573825 ] } },
{ "type": "Feature", "properties": { "County": "Crook", "State": "Wyoming", "Trump": 3651.0, "Biden": 378.0, "Jorgensen": 57.0, "Other": 57.0, "Total": 4143.0, "Winner": "Donald J Trump", "WnrPerc": 0.88124547429398992 }, "geometry": { "type": "Point", "coordinates": [ -104.570857390747136, 44.631179365951795 ] } },
{ "type": "Feature", "properties": { "County": "Lincoln", "State": "Wyoming", "Trump": 8643.0, "Biden": 1509.0, "Jorgensen": 167.0, "Other": 206.0, "Total": 10525.0, "Winner": "Donald J Trump", "WnrPerc": 0.82118764845605696 }, "geometry": { "type": "Point", "coordinates": [ -110.794914291940245, 42.3989275 ] } },
{ "type": "Feature", "properties": { "County": "Taylor", "State": "Wisconsin", "Trump": 7657.0, "Biden": 2693.0, "Jorgensen": 113.0, "Other": 223.0, "Total": 10686.0, "Winner": "Donald J Trump", "WnrPerc": 0.71654501216545008 }, "geometry": { "type": "Point", "coordinates": [ -90.48433590879813, 45.2063325 ] } },
{ "type": "Feature", "properties": { "County": "Henry", "State": "Virginia", "Trump": 16725.0, "Biden": 9127.0, "Jorgensen": 223.0, "Other": 30.0, "Total": 26105.0, "Winner": "Donald J Trump", "WnrPerc": 0.64068186171231567 }, "geometry": { "type": "Point", "coordinates": [ -79.986519744552922, 36.6974215 ] } },
{ "type": "Feature", "properties": { "County": "Petroleum", "State": "Montana", "Trump": 298.0, "Biden": 39.0, "Jorgensen": 11.0, "Other": 0.0, "Total": 348.0, "Winner": "Donald J Trump", "WnrPerc": 0.85632183908045978 }, "geometry": { "type": "Point", "coordinates": [ -108.333283137051623, 47.1734755 ] } },
{ "type": "Feature", "properties": { "County": "Sweet Grass", "State": "Montana", "Trump": 1840.0, "Biden": 549.0, "Jorgensen": 57.0, "Other": 0.0, "Total": 2446.0, "Winner": "Donald J Trump", "WnrPerc": 0.75224856909239579 }, "geometry": { "type": "Point", "coordinates": [ -109.891251136729139, 45.690389 ] } },
{ "type": "Feature", "properties": { "County": "Linn", "State": "Oregon", "Trump": 43486.0, "Biden": 26512.0, "Jorgensen": 1594.0, "Other": 1048.0, "Total": 72640.0, "Winner": "Donald J Trump", "WnrPerc": 0.59865088105726871 }, "geometry": { "type": "Point", "coordinates": [ -122.524979465797273, 44.498034 ] } },
{ "type": "Feature", "properties": { "County": "Caldwell", "State": "Texas", "Trump": 8031.0, "Biden": 6672.0, "Jorgensen": 190.0, "Other": 80.0, "Total": 14973.0, "Winner": "Donald J Trump", "WnrPerc": 0.5363654578240834 }, "geometry": { "type": "Point", "coordinates": [ -97.623383512207567, 29.849771 ] } },
{ "type": "Feature", "properties": { "County": "Wheatland", "State": "Montana", "Trump": 823.0, "Biden": 225.0, "Jorgensen": 20.0, "Other": 0.0, "Total": 1068.0, "Winner": "Donald J Trump", "WnrPerc": 0.77059925093632964 }, "geometry": { "type": "Point", "coordinates": [ -109.842473040029375, 46.3552155 ] } },
{ "type": "Feature", "properties": { "County": "Steele", "State": "Minnesota", "Trump": 12656.0, "Biden": 7917.0, "Jorgensen": 278.0, "Other": 277.0, "Total": 21128.0, "Winner": "Donald J Trump", "WnrPerc": 0.59901552442256722 }, "geometry": { "type": "Point", "coordinates": [ -93.226068193654783, 44.1091185 ] } },
{ "type": "Feature", "properties": { "County": "Dade", "State": "Missouri", "Trump": 3414.0, "Biden": 656.0, "Jorgensen": 42.0, "Other": 7.0, "Total": 4119.0, "Winner": "Donald J Trump", "WnrPerc": 0.82884195193008015 }, "geometry": { "type": "Point", "coordinates": [ -93.84816426933557, 37.500056 ] } },
{ "type": "Feature", "properties": { "County": "Cloud", "State": "Kansas", "Trump": 3242.0, "Biden": 920.0, "Jorgensen": 101.0, "Other": 0.0, "Total": 4263.0, "Winner": "Donald J Trump", "WnrPerc": 0.76049730236922353 }, "geometry": { "type": "Point", "coordinates": [ -97.649040837480413, 39.4309075 ] } },
{ "type": "Feature", "properties": { "County": "Josephine", "State": "Oregon", "Trump": 31751.0, "Biden": 18451.0, "Jorgensen": 795.0, "Other": 644.0, "Total": 51641.0, "Winner": "Donald J Trump", "WnrPerc": 0.61484092097364496 }, "geometry": { "type": "Point", "coordinates": [ -123.634332089193236, 42.3896735 ] } },
{ "type": "Feature", "properties": { "County": "Clay", "State": "Indiana", "Trump": 9499.0, "Biden": 2552.0, "Jorgensen": 208.0, "Other": 8.0, "Total": 12267.0, "Winner": "Donald J Trump", "WnrPerc": 0.77435395777288663 }, "geometry": { "type": "Point", "coordinates": [ -87.091115953845772, 39.3712665 ] } },
{ "type": "Feature", "properties": { "County": "Fleming", "State": "Kentucky", "Trump": 5534.0, "Biden": 1474.0, "Jorgensen": 37.0, "Other": 21.0, "Total": 7066.0, "Winner": "Donald J Trump", "WnrPerc": 0.78318709312199264 }, "geometry": { "type": "Point", "coordinates": [ -83.677964862959854, 38.343354 ] } },
{ "type": "Feature", "properties": { "County": "Nottoway", "State": "Virginia", "Trump": 4027.0, "Biden": 2971.0, "Jorgensen": 72.0, "Other": 8.0, "Total": 7078.0, "Winner": "Donald J Trump", "WnrPerc": 0.56894602995196386 }, "geometry": { "type": "Point", "coordinates": [ -78.069308473986837, 37.131987 ] } },
{ "type": "Feature", "properties": { "County": "Ford", "State": "Kansas", "Trump": 5803.0, "Biden": 2947.0, "Jorgensen": 165.0, "Other": 0.0, "Total": 8915.0, "Winner": "Donald J Trump", "WnrPerc": 0.65092540661805942 }, "geometry": { "type": "Point", "coordinates": [ -99.886769481223297, 37.605039 ] } },
{ "type": "Feature", "properties": { "County": "Madison", "State": "Indiana", "Trump": 31215.0, "Biden": 19524.0, "Jorgensen": 1026.0, "Other": 28.0, "Total": 51793.0, "Winner": "Donald J Trump", "WnrPerc": 0.6026876218794045 }, "geometry": { "type": "Point", "coordinates": [ -85.7192641574552, 40.1842685 ] } },
{ "type": "Feature", "properties": { "County": "Marion", "State": "Oregon", "Trump": 79002.0, "Biden": 80872.0, "Jorgensen": 3272.0, "Other": 2388.0, "Total": 165534.0, "Winner": "Joseph R Biden Jr", "WnrPerc": 0.48855220075634009 }, "geometry": { "type": "Point", "coordinates": [ -122.810336970984565, 44.9857195 ] } },
{ "type": "Feature", "properties": { "County": "Shelby", "State": "Indiana", "Trump": 14568.0, "Biden": 5023.0, "Jorgensen": 400.0, "Other": 0.0, "Total": 19991.0, "Winner": "Donald J Trump", "WnrPerc": 0.72872792756740534 }, "geometry": { "type": "Point", "coordinates": [ -85.790903450626175, 39.4879375 ] } },
{ "type": "Feature", "properties": { "County": "Crawford", "State": "Kansas", "Trump": 10045.0, "Biden": 6179.0, "Jorgensen": 421.0, "Other": 0.0, "Total": 16645.0, "Winner": "Donald J Trump", "WnrPerc": 0.60348452988885548 }, "geometry": { "type": "Point", "coordinates": [ -94.852511330425514, 37.5026375 ] } },
{ "type": "Feature", "properties": { "County": "Greenwood", "State": "Kansas", "Trump": 2444.0, "Biden": 569.0, "Jorgensen": 64.0, "Other": 0.0, "Total": 3077.0, "Winner": "Donald J Trump", "WnrPerc": 0.79428014299642513 }, "geometry": { "type": "Point", "coordinates": [ -96.242358051623967, 37.932642 ] } },
{ "type": "Feature", "properties": { "County": "Childress", "State": "Texas", "Trump": 1943.0, "Biden": 310.0, "Jorgensen": 18.0, "Other": 8.0, "Total": 2279.0, "Winner": "Donald J Trump", "WnrPerc": 0.85256691531373407 }, "geometry": { "type": "Point", "coordinates": [ -100.207427962903239, 34.4369739435217 ] } },
{ "type": "Feature", "properties": { "County": "Eastland", "State": "Texas", "Trump": 7237.0, "Biden": 983.0, "Jorgensen": 60.0, "Other": 13.0, "Total": 8293.0, "Winner": "Donald J Trump", "WnrPerc": 0.87266369227058971 }, "geometry": { "type": "Point", "coordinates": [ -98.814785324117821, 32.28026 ] } },
{ "type": "Feature", "properties": { "County": "Crosby", "State": "Texas", "Trump": 1396.0, "Biden": 527.0, "Jorgensen": 22.0, "Other": 8.0, "Total": 1953.0, "Winner": "Donald J Trump", "WnrPerc": 0.71479774705581156 }, "geometry": { "type": "Point", "coordinates": [ -101.300107619462295, 33.6138325 ] } },
{ "type": "Feature", "properties": { "County": "Dickinson", "State": "Iowa", "Trump": 7452.0, "Biden": 3661.0, "Jorgensen": 92.0, "Other": 39.0, "Total": 11244.0, "Winner": "Donald J Trump", "WnrPerc": 0.66275346851654215 }, "geometry": { "type": "Point", "coordinates": [ -95.150999542036899, 43.421238581416247 ] } },
{ "type": "Feature", "properties": { "County": "Floyd", "State": "Iowa", "Trump": 4747.0, "Biden": 3172.0, "Jorgensen": 63.0, "Other": 50.0, "Total": 8032.0, "Winner": "Donald J Trump", "WnrPerc": 0.59101095617529875 }, "geometry": { "type": "Point", "coordinates": [ -92.789457060614779, 43.0601805 ] } },
{ "type": "Feature", "properties": { "County": "Elk", "State": "Kansas", "Trump": 1140.0, "Biden": 195.0, "Jorgensen": 26.0, "Other": 0.0, "Total": 1361.0, "Winner": "Donald J Trump", "WnrPerc": 0.83761939750183689 }, "geometry": { "type": "Point", "coordinates": [ -96.243859227908487, 37.453339 ] } },
{ "type": "Feature", "properties": { "County": "Carroll", "State": "Iowa", "Trump": 7766.0, "Biden": 3454.0, "Jorgensen": 68.0, "Other": 47.0, "Total": 11335.0, "Winner": "Donald J Trump", "WnrPerc": 0.68513453903837673 }, "geometry": { "type": "Point", "coordinates": [ -94.860311997164175, 42.036385 ] } },
{ "type": "Feature", "properties": { "County": "Marion", "State": "Kansas", "Trump": 4465.0, "Biden": 1516.0, "Jorgensen": 130.0, "Other": 0.0, "Total": 6111.0, "Winner": "Donald J Trump", "WnrPerc": 0.73064964817542133 }, "geometry": { "type": "Point", "coordinates": [ -97.104690176344434, 38.3119095 ] } },
{ "type": "Feature", "properties": { "County": "Lee", "State": "Kentucky", "Trump": 2159.0, "Biden": 459.0, "Jorgensen": 25.0, "Other": 16.0, "Total": 2659.0, "Winner": "Donald J Trump", "WnrPerc": 0.81195938322677697 }, "geometry": { "type": "Point", "coordinates": [ -83.715506136008969, 37.5760305 ] } },
{ "type": "Feature", "properties": { "County": "Wabaunsee", "State": "Kansas", "Trump": 2845.0, "Biden": 964.0, "Jorgensen": 93.0, "Other": 0.0, "Total": 3902.0, "Winner": "Donald J Trump", "WnrPerc": 0.72911327524346492 }, "geometry": { "type": "Point", "coordinates": [ -96.224078663782876, 38.957431 ] } },
{ "type": "Feature", "properties": { "County": "Kalamazoo", "State": "Michigan", "Trump": 56823.0, "Biden": 83686.0, "Jorgensen": 2064.0, "Other": 841.0, "Total": 143414.0, "Winner": "Joseph R Biden Jr", "WnrPerc": 0.58352741015521492 }, "geometry": { "type": "Point", "coordinates": [ -85.529564045385243, 42.158812 ] } },
{ "type": "Feature", "properties": { "County": "Medina", "State": "Texas", "Trump": 15642.0, "Biden": 6773.0, "Jorgensen": 184.0, "Other": 58.0, "Total": 22657.0, "Winner": "Donald J Trump", "WnrPerc": 0.69038266319459773 }, "geometry": { "type": "Point", "coordinates": [ -99.108957023604518, 29.386702 ] } },
{ "type": "Feature", "properties": { "County": "Kent", "State": "Michigan", "Trump": 165741.0, "Biden": 187915.0, "Jorgensen": 5495.0, "Other": 1897.0, "Total": 361048.0, "Winner": "Joseph R Biden Jr", "WnrPerc": 0.52047096230972056 }, "geometry": { "type": "Point", "coordinates": [ -85.550750649027123, 43.074835 ] } },
{ "type": "Feature", "properties": { "County": "Montgomery", "State": "Kentucky", "Trump": 8993.0, "Biden": 3630.0, "Jorgensen": 154.0, "Other": 60.0, "Total": 12837.0, "Winner": "Donald J Trump", "WnrPerc": 0.7005530887278959 }, "geometry": { "type": "Point", "coordinates": [ -83.92891178816987, 38.061406 ] } },
{ "type": "Feature", "properties": { "County": "Mason", "State": "Michigan", "Trump": 10207.0, "Biden": 6802.0, "Jorgensen": 143.0, "Other": 102.0, "Total": 17254.0, "Winner": "Donald J Trump", "WnrPerc": 0.59157296858699437 }, "geometry": { "type": "Point", "coordinates": [ -86.259754843364803, 43.995428152395149 ] } },
{ "type": "Feature", "properties": { "County": "Mecosta", "State": "Michigan", "Trump": 13267.0, "Biden": 7375.0, "Jorgensen": 303.0, "Other": 104.0, "Total": 21049.0, "Winner": "Donald J Trump", "WnrPerc": 0.63029122523635328 }, "geometry": { "type": "Point", "coordinates": [ -85.324652214200128, 43.640903 ] } },
{ "type": "Feature", "properties": { "County": "Dodge", "State": "Wisconsin", "Trump": 31355.0, "Biden": 16356.0, "Jorgensen": 535.0, "Other": 190.0, "Total": 48436.0, "Winner": "Donald J Trump", "WnrPerc": 0.64734907919729123 }, "geometry": { "type": "Point", "coordinates": [ -88.703327132212408, 43.415226 ] } },
{ "type": "Feature", "properties": { "County": "Marshall", "State": "South Dakota", "Trump": 1287.0, "Biden": 858.0, "Jorgensen": 33.0, "Other": 0.0, "Total": 2178.0, "Winner": "Donald J Trump", "WnrPerc": 0.59090909090909094 }, "geometry": { "type": "Point", "coordinates": [ -97.603441118153114, 45.675526 ] } },
{ "type": "Feature", "properties": { "County": "Freeborn", "State": "Minnesota", "Trump": 9578.0, "Biden": 6889.0, "Jorgensen": 146.0, "Other": 205.0, "Total": 16818.0, "Winner": "Donald J Trump", "WnrPerc": 0.56950885955523844 }, "geometry": { "type": "Point", "coordinates": [ -93.348901498073602, 43.673884 ] } },
{ "type": "Feature", "properties": { "County": "Todd", "State": "Kentucky", "Trump": 4060.0, "Biden": 1202.0, "Jorgensen": 58.0, "Other": 31.0, "Total": 5351.0, "Winner": "Donald J Trump", "WnrPerc": 0.75873668473182587 }, "geometry": { "type": "Point", "coordinates": [ -87.170938083122309, 36.9226375 ] } },
{ "type": "Feature", "properties": { "County": "De Witt", "State": "Illinois", "Trump": 5632.0, "Biden": 2191.0, "Jorgensen": 139.0, "Other": 62.0, "Total": 8024.0, "Winner": "Donald J Trump", "WnrPerc": 0.70189431704885341 }, "geometry": { "type": "Point", "coordinates": [ -88.889499806065999, 40.211885 ] } },
{ "type": "Feature", "properties": { "County": "Wolfe", "State": "Kentucky", "Trump": 2097.0, "Biden": 839.0, "Jorgensen": 21.0, "Other": 22.0, "Total": 2979.0, "Winner": "Donald J Trump", "WnrPerc": 0.70392749244712993 }, "geometry": { "type": "Point", "coordinates": [ -83.496104865920159, 37.7449105 ] } },
{ "type": "Feature", "properties": { "County": "York", "State": "Maine", "Trump": 54817.0, "Biden": 71189.0, "Jorgensen": 2189.0, "Other": 2847.0, "Total": 131042.0, "Winner": "Joseph R Biden Jr", "WnrPerc": 0.54325330809969319 }, "geometry": { "type": "Point", "coordinates": [ -70.665614390473309, 43.436606 ] } },
{ "type": "Feature", "properties": { "County": "Douglas", "State": "Minnesota", "Trump": 15799.0, "Biden": 7868.0, "Jorgensen": 238.0, "Other": 260.0, "Total": 24165.0, "Winner": "Donald J Trump", "WnrPerc": 0.65379681357334984 }, "geometry": { "type": "Point", "coordinates": [ -95.448776210152261, 45.9331865 ] } },
{ "type": "Feature", "properties": { "County": "Falls", "State": "Texas", "Trump": 4177.0, "Biden": 1899.0, "Jorgensen": 44.0, "Other": 13.0, "Total": 6133.0, "Winner": "Donald J Trump", "WnrPerc": 0.68106962334909504 }, "geometry": { "type": "Point", "coordinates": [ -96.937039053772736, 31.2503495 ] } },
{ "type": "Feature", "properties": { "County": "Kingfisher", "State": "Oklahoma", "Trump": 5521.0, "Biden": 854.0, "Jorgensen": 64.0, "Other": 26.0, "Total": 6465.0, "Winner": "Donald J Trump", "WnrPerc": 0.8539829853054911 }, "geometry": { "type": "Point", "coordinates": [ -97.941850541875738, 36.031616 ] } },
{ "type": "Feature", "properties": { "County": "Aurora", "State": "South Dakota", "Trump": 1052.0, "Biden": 317.0, "Jorgensen": 36.0, "Other": 0.0, "Total": 1405.0, "Winner": "Donald J Trump", "WnrPerc": 0.74875444839857652 }, "geometry": { "type": "Point", "coordinates": [ -98.560597826820754, 43.713942 ] } },
{ "type": "Feature", "properties": { "County": "Floyd", "State": "Texas", "Trump": 1584.0, "Biden": 438.0, "Jorgensen": 15.0, "Other": 2.0, "Total": 2039.0, "Winner": "Donald J Trump", "WnrPerc": 0.77685139774399214 }, "geometry": { "type": "Point", "coordinates": [ -101.302674422424047, 33.9539265 ] } },
{ "type": "Feature", "properties": { "County": "Major", "State": "Oklahoma", "Trump": 3084.0, "Biden": 320.0, "Jorgensen": 39.0, "Other": 24.0, "Total": 3467.0, "Winner": "Donald J Trump", "WnrPerc": 0.88952985289875974 }, "geometry": { "type": "Point", "coordinates": [ -98.532339510772502, 36.3193655 ] } },
{ "type": "Feature", "properties": { "County": "Clark", "State": "South Dakota", "Trump": 1373.0, "Biden": 437.0, "Jorgensen": 40.0, "Other": 0.0, "Total": 1850.0, "Winner": "Donald J Trump", "WnrPerc": 0.74216216216216213 }, "geometry": { "type": "Point", "coordinates": [ -97.734289592268254, 44.8476565 ] } },
{ "type": "Feature", "properties": { "County": "Barnwell", "State": "South Carolina", "Trump": 5492.0, "Biden": 4720.0, "Jorgensen": 78.0, "Other": 31.0, "Total": 10321.0, "Winner": "Donald J Trump", "WnrPerc": 0.53211898071892261 }, "geometry": { "type": "Point", "coordinates": [ -81.412652224789326, 33.312702 ] } },
{ "type": "Feature", "properties": { "County": "Atascosa", "State": "Texas", "Trump": 12039.0, "Biden": 5876.0, "Jorgensen": 143.0, "Other": 60.0, "Total": 18118.0, "Winner": "Donald J Trump", "WnrPerc": 0.66447731537697319 }, "geometry": { "type": "Point", "coordinates": [ -98.532296146128658, 28.957931 ] } },
{ "type": "Feature", "properties": { "County": "Cambria", "State": "Pennsylvania", "Trump": 48085.0, "Biden": 21730.0, "Jorgensen": 759.0, "Other": 0.0, "Total": 70574.0, "Winner": "Donald J Trump", "WnrPerc": 0.68134157055006095 }, "geometry": { "type": "Point", "coordinates": [ -78.73278152346478, 40.483604 ] } },
{ "type": "Feature", "properties": { "County": "Custer", "State": "South Dakota", "Trump": 3852.0, "Biden": 1522.0, "Jorgensen": 120.0, "Other": 0.0, "Total": 5494.0, "Winner": "Donald J Trump", "WnrPerc": 0.7011285038223517 }, "geometry": { "type": "Point", "coordinates": [ -103.484196249195662, 43.6661685 ] } },
{ "type": "Feature", "properties": { "County": "Hockley", "State": "Texas", "Trump": 6536.0, "Biden": 1482.0, "Jorgensen": 61.0, "Other": 21.0, "Total": 8100.0, "Winner": "Donald J Trump", "WnrPerc": 0.80691358024691362 }, "geometry": { "type": "Point", "coordinates": [ -102.342993932534142, 33.6071305 ] } },
{ "type": "Feature", "properties": { "County": "Nowata", "State": "Oklahoma", "Trump": 3610.0, "Biden": 712.0, "Jorgensen": 54.0, "Other": 15.0, "Total": 4391.0, "Winner": "Donald J Trump", "WnrPerc": 0.82213618765657026 }, "geometry": { "type": "Point", "coordinates": [ -95.620730374443198, 36.849445 ] } },
{ "type": "Feature", "properties": { "County": "Isanti", "State": "Minnesota", "Trump": 16491.0, "Biden": 7138.0, "Jorgensen": 304.0, "Other": 302.0, "Total": 24235.0, "Winner": "Donald J Trump", "WnrPerc": 0.68046214153084383 }, "geometry": { "type": "Point", "coordinates": [ -93.327022794419918, 45.6447145 ] } },
{ "type": "Feature", "properties": { "County": "Nodaway", "State": "Missouri", "Trump": 6865.0, "Biden": 2853.0, "Jorgensen": 131.0, "Other": 44.0, "Total": 9893.0, "Winner": "Donald J Trump", "WnrPerc": 0.69392499747296066 }, "geometry": { "type": "Point", "coordinates": [ -94.890026434492569, 40.32421 ] } },
{ "type": "Feature", "properties": { "County": "Stevens", "State": "Minnesota", "Trump": 3044.0, "Biden": 1922.0, "Jorgensen": 44.0, "Other": 75.0, "Total": 5085.0, "Winner": "Donald J Trump", "WnrPerc": 0.59862340216322518 }, "geometry": { "type": "Point", "coordinates": [ -96.005970867409872, 45.672715 ] } },
{ "type": "Feature", "properties": { "County": "Stephens", "State": "Texas", "Trump": 3385.0, "Biden": 397.0, "Jorgensen": 16.0, "Other": 2.0, "Total": 3800.0, "Winner": "Donald J Trump", "WnrPerc": 0.89078947368421058 }, "geometry": { "type": "Point", "coordinates": [ -98.835904166983354, 32.8440915 ] } },
{ "type": "Feature", "properties": { "County": "Arthur", "State": "Nebraska", "Trump": 260.0, "Biden": 21.0, "Jorgensen": 3.0, "Other": 0.0, "Total": 284.0, "Winner": "Donald J Trump", "WnrPerc": 0.91549295774647887 }, "geometry": { "type": "Point", "coordinates": [ -101.695954797425088, 41.568853 ] } },